{
    "meta": [
        {
            "name": "id",
            "type": "UInt64"
        },
        {
            "name": "time",
            "type": "DateTime"
        },
        {
            "name": "band",
            "type": "Int16"
        },
        {
            "name": "rx_sign",
            "type": "LowCardinality(String)"
        },
        {
            "name": "rx_lat",
            "type": "Float32"
        },
        {
            "name": "rx_lon",
            "type": "Float32"
        },
        {
            "name": "rx_loc",
            "type": "LowCardinality(String)"
        },
        {
            "name": "tx_sign",
            "type": "LowCardinality(String)"
        },
        {
            "name": "tx_lat",
            "type": "Float32"
        },
        {
            "name": "tx_lon",
            "type": "Float32"
        },
        {
            "name": "tx_loc",
            "type": "LowCardinality(String)"
        },
        {
            "name": "distance",
            "type": "UInt16"
        },
        {
            "name": "azimuth",
            "type": "UInt16"
        },
        {
            "name": "rx_azimuth",
            "type": "UInt16"
        },
        {
            "name": "frequency",
            "type": "UInt32"
        },
        {
            "name": "power",
            "type": "Int8"
        },
        {
            "name": "snr",
            "type": "Int8"
        },
        {
            "name": "drift",
            "type": "Int8"
        },
        {
            "name": "version",
            "type": "LowCardinality(String)"
        },
        {
            "name": "code",
            "type": "Int8"
        }
    ],
    "data": [
        {
            "id": "7751213711",
            "time": "2024-05-27 03:46:00",
            "band": 10,
            "rx_sign": "K6FTP",
            "rx_lat": 34.438,
            "rx_lon": -119.875,
            "rx_loc": "DM04bk",
            "tx_sign": "WB0OEW",
            "tx_lat": 32.354,
            "tx_lon": -111.125,
            "tx_loc": "DM42ki",
            "distance": 844,
            "azimuth": 288,
            "rx_azimuth": 103,
            "frequency": 10140178,
            "power": 33,
            "snr": -3,
            "drift": 0,
            "version": "wspr-zero",
            "code": 1
        },
        {
            "id": "7751213764",
            "time": "2024-05-27 03:46:00",
            "band": 10,
            "rx_sign": "K6FTP",
            "rx_lat": 34.438,
            "rx_lon": -119.875,
            "rx_loc": "DM04bk",
            "tx_sign": "AE7KH",
            "tx_lat": 45.479,
            "tx_lon": -123.042,
            "tx_loc": "CN85",
            "distance": 1257,
            "azimuth": 167,
            "rx_azimuth": 348,
            "frequency": 10140291,
            "power": 23,
            "snr": -14,
            "drift": 0,
            "version": "wspr-zero",
            "code": 1
        },
        {
            "id": "7751213807",
            "time": "2024-05-27 03:46:00",
            "band": 10,
            "rx_sign": "K6FTP",
            "rx_lat": 34.438,
            "rx_lon": -119.875,
            "rx_loc": "DM04bk",
            "tx_sign": "VE7AV",
            "tx_lat": 53.813,
            "tx_lon": -122.792,
            "tx_loc": "CO83ot",
            "distance": 2166,
            "azimuth": 173,
            "rx_azimuth": 354,
            "frequency": 10140157,
            "power": 23,
            "snr": -18,
            "drift": 0,
            "version": "wspr-zero",
            "code": 1
        },
        {
            "id": "7751213846",
            "time": "2024-05-27 03:46:00",
            "band": 10,
            "rx_sign": "K6FTP",
            "rx_lat": 34.438,
            "rx_lon": -119.875,
            "rx_loc": "DM04bk",
            "tx_sign": "KD0MVQ",
            "tx_lat": 38.479,
            "tx_lon": -95.042,
            "tx_loc": "EM28",
            "distance": 2259,
            "azimuth": 266,
            "rx_azimuth": 71,
            "frequency": 10140265,
            "power": 23,
            "snr": -21,
            "drift": 0,
            "version": "wspr-zero",
            "code": 1
        },
        {
            "id": "7751225068",
            "time": "2024-05-27 03:48:00",
            "band": 10,
            "rx_sign": "K6FTP",
            "rx_lat": 34.438,
            "rx_lon": -119.875,
            "rx_loc": "DM04bk",
            "tx_sign": "N5AQM",
            "tx_lat": 33.313,
            "tx_lon": -111.958,
            "tx_loc": "DM43ah",
            "distance": 741,
            "azimuth": 282,
            "rx_azimuth": 97,
            "frequency": 10140219,
            "power": 27,
            "snr": -9,
            "drift": 0,
            "version": "wspr-zero",
            "code": 1
        },
        {
            "id": "7751225121",
            "time": "2024-05-27 03:48:00",
            "band": 10,
            "rx_sign": "K6FTP",
            "rx_lat": 34.438,
            "rx_lon": -119.875,
            "rx_loc": "DM04bk",
            "tx_sign": "WI6P",
            "tx_lat": 47.313,
            "tx_lon": -122.792,
            "tx_loc": "CN87oh",
            "distance": 1452,
            "azimuth": 169,
            "rx_azimuth": 351,
            "frequency": 10140202,
            "power": 33,
            "snr": -12,
            "drift": 0,
            "version": "wspr-zero",
            "code": 1
        },
        {
            "id": "7751225168",
            "time": "2024-05-27 03:48:00",
            "band": 10,
            "rx_sign": "K6FTP",
            "rx_lat": 34.438,
            "rx_lon": -119.875,
            "rx_loc": "DM04bk",
            "tx_sign": "KI5MPX",
            "tx_lat": 35.188,
            "tx_lon": -101.875,
            "tx_loc": "DM95be",
            "distance": 1643,
            "azimuth": 272,
            "rx_azimuth": 81,
            "frequency": 10140212,
            "power": 23,
            "snr": -18,
            "drift": 0,
            "version": "wspr-zero",
            "code": 1
        },
        {
            "id": "7751233881",
            "time": "2024-05-27 03:50:00",
            "band": 10,
            "rx_sign": "K6FTP",
            "rx_lat": 34.438,
            "rx_lon": -119.875,
            "rx_loc": "DM04bk",
            "tx_sign": "K1MEA",
            "tx_lat": 33.646,
            "tx_lon": -112.375,
            "tx_loc": "DM33tp",
            "distance": 696,
            "azimuth": 279,
            "rx_azimuth": 95,
            "frequency": 10140115,
            "power": 37,
            "snr": -9,
            "drift": 0,
            "version": "wspr-zero",
            "code": 1
        },
        {
            "id": "7751233921",
            "time": "2024-05-27 03:50:00",
            "band": 10,
            "rx_sign": "K6FTP",
            "rx_lat": 34.438,
            "rx_lon": -119.875,
            "rx_loc": "DM04bk",
            "tx_sign": "KD6RC",
            "tx_lat": 38.479,
            "tx_lon": -122.625,
            "tx_loc": "CM88ql",
            "distance": 512,
            "azimuth": 150,
            "rx_azimuth": 332,
            "frequency": 10140301,
            "power": 23,
            "snr": -15,
            "drift": 0,
            "version": "wspr-zero",
            "code": 1
        },
        {
            "id": "7751233962",
            "time": "2024-05-27 03:50:00",
            "band": 10,
            "rx_sign": "K6FTP",
            "rx_lat": 34.438,
            "rx_lon": -119.875,
            "rx_loc": "DM04bk",
            "tx_sign": "KA7FTP",
            "tx_lat": 40.479,
            "tx_lon": -111.042,
            "tx_loc": "DN40",
            "distance": 1028,
            "azimuth": 232,
            "rx_azimuth": 46,
            "frequency": 10140182,
            "power": 23,
            "snr": -17,
            "drift": 0,
            "version": "wspr-zero",
            "code": 1
        },
        {
            "id": "7751233997",
            "time": "2024-05-27 03:50:00",
            "band": 10,
            "rx_sign": "K6FTP",
            "rx_lat": 34.438,
            "rx_lon": -119.875,
            "rx_loc": "DM04bk",
            "tx_sign": "W0QL",
            "tx_lat": 39.813,
            "tx_lon": -104.792,
            "tx_loc": "DM79ot",
            "distance": 1462,
            "azimuth": 251,
            "rx_azimuth": 61,
            "frequency": 10140279,
            "power": 23,
            "snr": -18,
            "drift": 0,
            "version": "wspr-zero",
            "code": 1
        },
        {
            "id": "7751234032",
            "time": "2024-05-27 03:50:00",
            "band": 10,
            "rx_sign": "K6FTP",
            "rx_lat": 34.438,
            "rx_lon": -119.875,
            "rx_loc": "DM04bk",
            "tx_sign": "KT7AZ",
            "tx_lat": 32.396,
            "tx_lon": -110.958,
            "tx_loc": "DM42mj",
            "distance": 858,
            "azimuth": 288,
            "rx_azimuth": 102,
            "frequency": 10140157,
            "power": 20,
            "snr": -23,
            "drift": 0,
            "version": "wspr-zero",
            "code": 1
        },
        {
            "id": "7751234076",
            "time": "2024-05-27 03:50:00",
            "band": 10,
            "rx_sign": "K6FTP",
            "rx_lat": 34.438,
            "rx_lon": -119.875,
            "rx_loc": "DM04bk",
            "tx_sign": "VE6DAI",
            "tx_lat": 53.521,
            "tx_lon": -113.625,
            "tx_loc": "DO33em",
            "distance": 2178,
            "azimuth": 196,
            "rx_azimuth": 11,
            "frequency": 10140250,
            "power": 33,
            "snr": -25,
            "drift": 0,
            "version": "wspr-zero",
            "code": 1
        },
        {
            "id": "7751246472",
            "time": "2024-05-27 03:52:00",
            "band": 10,
            "rx_sign": "K6FTP",
            "rx_lat": 34.438,
            "rx_lon": -119.875,
            "rx_loc": "DM04bk",
            "tx_sign": "NJ7E",
            "tx_lat": 33.604,
            "tx_lon": -111.958,
            "tx_loc": "DM43ao",
            "distance": 735,
            "azimuth": 279,
            "rx_azimuth": 95,
            "frequency": 10140190,
            "power": 23,
            "snr": -10,
            "drift": 0,
            "version": "wspr-zero",
            "code": 1
        },
        {
            "id": "7751246501",
            "time": "2024-05-27 03:52:00",
            "band": 10,
            "rx_sign": "K6FTP",
            "rx_lat": 34.438,
            "rx_lon": -119.875,
            "rx_loc": "DM04bk",
            "tx_sign": "K7FZO",
            "tx_lat": 47.479,
            "tx_lon": -121.708,
            "tx_loc": "CN97dl",
            "distance": 1458,
            "azimuth": 173,
            "rx_azimuth": 354,
            "frequency": 10140163,
            "power": 23,
            "snr": -16,
            "drift": 0,
            "version": "wspr-zero",
            "code": 1
        },
        {
            "id": "7751255219",
            "time": "2024-05-27 03:54:00",
            "band": 10,
            "rx_sign": "K6FTP",
            "rx_lat": 34.438,
            "rx_lon": -119.875,
            "rx_loc": "DM04bk",
            "tx_sign": "KB6DAY",
            "tx_lat": 37.604,
            "tx_lon": -122.458,
            "tx_loc": "CM87so",
            "distance": 422,
            "azimuth": 146,
            "rx_azimuth": 327,
            "frequency": 10140207,
            "power": 47,
            "snr": 3,
            "drift": 0,
            "version": "wspr-zero",
            "code": 1
        },
        {
            "id": "7751255245",
            "time": "2024-05-27 03:54:00",
            "band": 10,
            "rx_sign": "K6FTP",
            "rx_lat": 34.438,
            "rx_lon": -119.875,
            "rx_loc": "DM04bk",
            "tx_sign": "WB0OEW",
            "tx_lat": 32.354,
            "tx_lon": -111.125,
            "tx_loc": "DM42ki",
            "distance": 844,
            "azimuth": 288,
            "rx_azimuth": 103,
            "frequency": 10140177,
            "power": 33,
            "snr": -14,
            "drift": 0,
            "version": "wspr-zero",
            "code": 1
        },
        {
            "id": "7751255279",
            "time": "2024-05-27 03:54:00",
            "band": 10,
            "rx_sign": "K6FTP",
            "rx_lat": 34.438,
            "rx_lon": -119.875,
            "rx_loc": "DM04bk",
            "tx_sign": "AE7KH",
            "tx_lat": 45.479,
            "tx_lon": -123.042,
            "tx_loc": "CN85",
            "distance": 1257,
            "azimuth": 167,
            "rx_azimuth": 348,
            "frequency": 10140294,
            "power": 23,
            "snr": -16,
            "drift": 0,
            "version": "wspr-zero",
            "code": 1
        },
        {
            "id": "7751255311",
            "time": "2024-05-27 03:54:00",
            "band": 10,
            "rx_sign": "K6FTP",
            "rx_lat": 34.438,
            "rx_lon": -119.875,
            "rx_loc": "DM04bk",
            "tx_sign": "K2DAK",
            "tx_lat": 33.688,
            "tx_lon": -112.208,
            "tx_loc": "DM33vq",
            "distance": 711,
            "azimuth": 279,
            "rx_azimuth": 94,
            "frequency": 10140217,
            "power": 20,
            "snr": -17,
            "drift": 0,
            "version": "wspr-zero",
            "code": 1
        },
        {
            "id": "7751255351",
            "time": "2024-05-27 03:54:00",
            "band": 10,
            "rx_sign": "K6FTP",
            "rx_lat": 34.438,
            "rx_lon": -119.875,
            "rx_loc": "DM04bk",
            "tx_sign": "N7CHS",
            "tx_lat": 45.854,
            "tx_lon": -122.792,
            "tx_loc": "CN85ou",
            "distance": 1293,
            "azimuth": 168,
            "rx_azimuth": 349,
            "frequency": 10140190,
            "power": 33,
            "snr": -20,
            "drift": 0,
            "version": "wspr-zero",
            "code": 1
        },
        {
            "id": "7751264518",
            "time": "2024-05-27 03:56:00",
            "band": 10,
            "rx_sign": "K6FTP",
            "rx_lat": 34.438,
            "rx_lon": -119.875,
            "rx_loc": "DM04bk",
            "tx_sign": "NE7H",
            "tx_lat": 45.479,
            "tx_lon": -123.042,
            "tx_loc": "CN85",
            "distance": 1257,
            "azimuth": 167,
            "rx_azimuth": 348,
            "frequency": 10140297,
            "power": 23,
            "snr": -16,
            "drift": 0,
            "version": "wspr-zero",
            "code": 1
        },
        {
            "id": "7751264486",
            "time": "2024-05-27 03:56:00",
            "band": 10,
            "rx_sign": "K6FTP",
            "rx_lat": 34.438,
            "rx_lon": -119.875,
            "rx_loc": "DM04bk",
            "tx_sign": "N5AQM",
            "tx_lat": 33.313,
            "tx_lon": -111.958,
            "tx_loc": "DM43ah",
            "distance": 741,
            "azimuth": 282,
            "rx_azimuth": 97,
            "frequency": 10140219,
            "power": 27,
            "snr": -7,
            "drift": 0,
            "version": "wspr-zero",
            "code": 1
        },
        {
            "id": "7751264548",
            "time": "2024-05-27 03:56:00",
            "band": 10,
            "rx_sign": "K6FTP",
            "rx_lat": 34.438,
            "rx_lon": -119.875,
            "rx_loc": "DM04bk",
            "tx_sign": "VE7AV",
            "tx_lat": 53.813,
            "tx_lon": -122.792,
            "tx_loc": "CO83ot",
            "distance": 2166,
            "azimuth": 173,
            "rx_azimuth": 354,
            "frequency": 10140197,
            "power": 23,
            "snr": -19,
            "drift": 0,
            "version": "wspr-zero",
            "code": 1
        },
        {
            "id": "7751273675",
            "time": "2024-05-27 03:58:00",
            "band": 10,
            "rx_sign": "K6FTP",
            "rx_lat": 34.438,
            "rx_lon": -119.875,
            "rx_loc": "DM04bk",
            "tx_sign": "AE7KH",
            "tx_lat": 45.479,
            "tx_lon": -123.042,
            "tx_loc": "CN85",
            "distance": 1257,
            "azimuth": 167,
            "rx_azimuth": 348,
            "frequency": 10140206,
            "power": 23,
            "snr": -12,
            "drift": 0,
            "version": "wspr-zero",
            "code": 1
        },
        {
            "id": "7751273691",
            "time": "2024-05-27 03:58:00",
            "band": 10,
            "rx_sign": "K6FTP",
            "rx_lat": 34.438,
            "rx_lon": -119.875,
            "rx_loc": "DM04bk",
            "tx_sign": "VA7GEM",
            "tx_lat": 49.354,
            "tx_lon": -123.042,
            "tx_loc": "CN89li",
            "distance": 1679,
            "azimuth": 170,
            "rx_azimuth": 352,
            "frequency": 10140225,
            "power": 30,
            "snr": -15,
            "drift": 0,
            "version": "wspr-zero",
            "code": 1
        },
        {
            "id": "7751273704",
            "time": "2024-05-27 03:58:00",
            "band": 10,
            "rx_sign": "K6FTP",
            "rx_lat": 34.438,
            "rx_lon": -119.875,
            "rx_loc": "DM04bk",
            "tx_sign": "K4AGR",
            "tx_lat": 31.104,
            "tx_lon": -85.458,
            "tx_loc": "EM71gc",
            "distance": 3224,
            "azimuth": 286,
            "rx_azimuth": 86,
            "frequency": 10140176,
            "power": 23,
            "snr": -19,
            "drift": 0,
            "version": "wspr-zero",
            "code": 1
        },
        {
            "id": "7751281568",
            "time": "2024-05-27 04:00:00",
            "band": 10,
            "rx_sign": "K6FTP",
            "rx_lat": 34.438,
            "rx_lon": -119.875,
            "rx_loc": "DM04bk",
            "tx_sign": "KT7AZ",
            "tx_lat": 32.396,
            "tx_lon": -110.958,
            "tx_loc": "DM42mj",
            "distance": 858,
            "azimuth": 288,
            "rx_azimuth": 102,
            "frequency": 10140194,
            "power": 20,
            "snr": -12,
            "drift": 0,
            "version": "wspr-zero",
            "code": 1
        },
        {
            "id": "7751281593",
            "time": "2024-05-27 04:00:00",
            "band": 10,
            "rx_sign": "K6FTP",
            "rx_lat": 34.438,
            "rx_lon": -119.875,
            "rx_loc": "DM04bk",
            "tx_sign": "KA7FTP",
            "tx_lat": 40.479,
            "tx_lon": -111.042,
            "tx_loc": "DN40",
            "distance": 1028,
            "azimuth": 232,
            "rx_azimuth": 46,
            "frequency": 10140183,
            "power": 23,
            "snr": -18,
            "drift": 0,
            "version": "wspr-zero",
            "code": 1
        },
        {
            "id": "7751281610",
            "time": "2024-05-27 04:00:00",
            "band": 10,
            "rx_sign": "K6FTP",
            "rx_lat": 34.438,
            "rx_lon": -119.875,
            "rx_loc": "DM04bk",
            "tx_sign": "W6VYC",
            "tx_lat": 37.688,
            "tx_lon": -122.375,
            "tx_loc": "CM87tq",
            "distance": 426,
            "azimuth": 147,
            "rx_azimuth": 328,
            "frequency": 10140132,
            "power": 23,
            "snr": -19,
            "drift": 0,
            "version": "wspr-zero",
            "code": 1
        },
        {
            "id": "7751288454",
            "time": "2024-05-27 04:02:00",
            "band": 10,
            "rx_sign": "K6FTP",
            "rx_lat": 34.438,
            "rx_lon": -119.875,
            "rx_loc": "DM04bk",
            "tx_sign": "NJ7E",
            "tx_lat": 33.604,
            "tx_lon": -111.958,
            "tx_loc": "DM43ao",
            "distance": 735,
            "azimuth": 279,
            "rx_azimuth": 95,
            "frequency": 10140220,
            "power": 23,
            "snr": 0,
            "drift": 0,
            "version": "wspr-zero",
            "code": 1
        },
        {
            "id": "7751288490",
            "time": "2024-05-27 04:02:00",
            "band": 10,
            "rx_sign": "K6FTP",
            "rx_lat": 34.438,
            "rx_lon": -119.875,
            "rx_loc": "DM04bk",
            "tx_sign": "WB0OEW",
            "tx_lat": 32.354,
            "tx_lon": -111.125,
            "tx_loc": "DM42ki",
            "distance": 844,
            "azimuth": 288,
            "rx_azimuth": 103,
            "frequency": 10140179,
            "power": 33,
            "snr": -7,
            "drift": 0,
            "version": "wspr-zero",
            "code": 1
        },
        {
            "id": "7751288529",
            "time": "2024-05-27 04:02:00",
            "band": 10,
            "rx_sign": "K6FTP",
            "rx_lat": 34.438,
            "rx_lon": -119.875,
            "rx_loc": "DM04bk",
            "tx_sign": "W5KV",
            "tx_lat": 39.646,
            "tx_lon": -104.792,
            "tx_loc": "DM79op",
            "distance": 1456,
            "azimuth": 251,
            "rx_azimuth": 62,
            "frequency": 10140265,
            "power": 23,
            "snr": -13,
            "drift": 0,
            "version": "wspr-zero",
            "code": 1
        },
        {
            "id": "7751288558",
            "time": "2024-05-27 04:02:00",
            "band": 10,
            "rx_sign": "K6FTP",
            "rx_lat": 34.438,
            "rx_lon": -119.875,
            "rx_loc": "DM04bk",
            "tx_sign": "AE7KH",
            "tx_lat": 45.479,
            "tx_lon": -123.042,
            "tx_loc": "CN85",
            "distance": 1257,
            "azimuth": 167,
            "rx_azimuth": 348,
            "frequency": 10140118,
            "power": 23,
            "snr": -16,
            "drift": 0,
            "version": "wspr-zero",
            "code": 1
        },
        {
            "id": "7751288595",
            "time": "2024-05-27 04:02:00",
            "band": 10,
            "rx_sign": "K6FTP",
            "rx_lat": 34.438,
            "rx_lon": -119.875,
            "rx_loc": "DM04bk",
            "tx_sign": "VE6DAI",
            "tx_lat": 53.521,
            "tx_lon": -113.625,
            "tx_loc": "DO33em",
            "distance": 2178,
            "azimuth": 196,
            "rx_azimuth": 11,
            "frequency": 10140170,
            "power": 33,
            "snr": -20,
            "drift": 0,
            "version": "wspr-zero",
            "code": 1
        },
        {
            "id": "7751288632",
            "time": "2024-05-27 04:02:00",
            "band": 10,
            "rx_sign": "K6FTP",
            "rx_lat": 34.438,
            "rx_lon": -119.875,
            "rx_loc": "DM04bk",
            "tx_sign": "KF7PXH",
            "tx_lat": 47.688,
            "tx_lon": -122.375,
            "tx_loc": "CN87tq",
            "distance": 1488,
            "azimuth": 171,
            "rx_azimuth": 352,
            "frequency": 10140155,
            "power": 23,
            "snr": -21,
            "drift": 0,
            "version": "wspr-zero",
            "code": 1
        },
        {
            "id": "7751297859",
            "time": "2024-05-27 04:04:00",
            "band": 10,
            "rx_sign": "K6FTP",
            "rx_lat": 34.438,
            "rx_lon": -119.875,
            "rx_loc": "DM04bk",
            "tx_sign": "KD7UHR",
            "tx_lat": 38.688,
            "tx_lon": -89.875,
            "tx_loc": "EM58bq",
            "distance": 2708,
            "azimuth": 269,
            "rx_azimuth": 71,
            "frequency": 10140206,
            "power": 40,
            "snr": -5,
            "drift": 0,
            "version": "wspr-zero",
            "code": 1
        },
        {
            "id": "7751306123",
            "time": "2024-05-27 04:06:00",
            "band": 10,
            "rx_sign": "K6FTP",
            "rx_lat": 34.438,
            "rx_lon": -119.875,
            "rx_loc": "DM04bk",
            "tx_sign": "AE7KH",
            "tx_lat": 45.479,
            "tx_lon": -123.042,
            "tx_loc": "CN85",
            "distance": 1257,
            "azimuth": 167,
            "rx_azimuth": 348,
            "frequency": 10140209,
            "power": 23,
            "snr": -13,
            "drift": 0,
            "version": "wspr-zero",
            "code": 1
        },
        {
            "id": "7751306160",
            "time": "2024-05-27 04:06:00",
            "band": 10,
            "rx_sign": "K6FTP",
            "rx_lat": 34.438,
            "rx_lon": -119.875,
            "rx_loc": "DM04bk",
            "tx_sign": "VE7AV",
            "tx_lat": 53.813,
            "tx_lon": -122.792,
            "tx_loc": "CO83ot",
            "distance": 2166,
            "azimuth": 173,
            "rx_azimuth": 354,
            "frequency": 10140221,
            "power": 23,
            "snr": -18,
            "drift": 0,
            "version": "wspr-zero",
            "code": 1
        },
        {
            "id": "7751315621",
            "time": "2024-05-27 04:08:00",
            "band": 10,
            "rx_sign": "K6FTP",
            "rx_lat": 34.438,
            "rx_lon": -119.875,
            "rx_loc": "DM04bk",
            "tx_sign": "KD7UHR",
            "tx_lat": 38.688,
            "tx_lon": -89.875,
            "tx_loc": "EM58bq",
            "distance": 2708,
            "azimuth": 269,
            "rx_azimuth": 71,
            "frequency": 10140206,
            "power": 40,
            "snr": -4,
            "drift": 0,
            "version": "wspr-zero",
            "code": 1
        },
        {
            "id": "7751315644",
            "time": "2024-05-27 04:08:00",
            "band": 10,
            "rx_sign": "K6FTP",
            "rx_lat": 34.438,
            "rx_lon": -119.875,
            "rx_loc": "DM04bk",
            "tx_sign": "KI5UKQ",
            "tx_lat": 33.021,
            "tx_lon": -101.042,
            "tx_loc": "DM93la",
            "distance": 1746,
            "azimuth": 280,
            "rx_azimuth": 89,
            "frequency": 10140176,
            "power": 37,
            "snr": -11,
            "drift": 0,
            "version": "wspr-zero",
            "code": 1
        },
        {
            "id": "7751315673",
            "time": "2024-05-27 04:08:00",
            "band": 10,
            "rx_sign": "K6FTP",
            "rx_lat": 34.438,
            "rx_lon": -119.875,
            "rx_loc": "DM04bk",
            "tx_sign": "KC5MO",
            "tx_lat": 30.229,
            "tx_lon": -97.875,
            "tx_loc": "EM10bf",
            "distance": 2115,
            "azimuth": 289,
            "rx_azimuth": 96,
            "frequency": 10140236,
            "power": 23,
            "snr": -17,
            "drift": 0,
            "version": "wspr-zero",
            "code": 1
        },
        {
            "id": "7751315703",
            "time": "2024-05-27 04:08:00",
            "band": 10,
            "rx_sign": "K6FTP",
            "rx_lat": 34.438,
            "rx_lon": -119.875,
            "rx_loc": "DM04bk",
            "tx_sign": "W0QL",
            "tx_lat": 39.813,
            "tx_lon": -104.792,
            "tx_loc": "DM79ot",
            "distance": 1462,
            "azimuth": 251,
            "rx_azimuth": 61,
            "frequency": 10140256,
            "power": 23,
            "snr": -18,
            "drift": 0,
            "version": "wspr-zero",
            "code": 1
        },
        {
            "id": "7751315750",
            "time": "2024-05-27 04:08:00",
            "band": 10,
            "rx_sign": "K6FTP",
            "rx_lat": 34.438,
            "rx_lon": -119.875,
            "rx_loc": "DM04bk",
            "tx_sign": "WA3DNM",
            "tx_lat": 39.938,
            "tx_lon": -75.542,
            "tx_loc": "FM29fw",
            "distance": 3934,
            "azimuth": 275,
            "rx_azimuth": 67,
            "frequency": 10140195,
            "power": 37,
            "snr": -19,
            "drift": 0,
            "version": "wspr-zero",
            "code": 1
        },
        {
            "id": "7751315782",
            "time": "2024-05-27 04:08:00",
            "band": 10,
            "rx_sign": "K6FTP",
            "rx_lat": 34.438,
            "rx_lon": -119.875,
            "rx_loc": "DM04bk",
            "tx_sign": "W3HH",
            "tx_lat": 29.063,
            "tx_lon": -82.208,
            "tx_loc": "EL89vb",
            "distance": 3591,
            "azimuth": 289,
            "rx_azimuth": 88,
            "frequency": 10140162,
            "power": 33,
            "snr": -20,
            "drift": 0,
            "version": "wspr-zero",
            "code": 1
        },
        {
            "id": "7751315823",
            "time": "2024-05-27 04:08:00",
            "band": 10,
            "rx_sign": "K6FTP",
            "rx_lat": 34.438,
            "rx_lon": -119.875,
            "rx_loc": "DM04bk",
            "tx_sign": "K0ANS",
            "tx_lat": 40.146,
            "tx_lon": -105.125,
            "tx_loc": "DN70kd",
            "distance": 1448,
            "azimuth": 249,
            "rx_azimuth": 59,
            "frequency": 10140299,
            "power": 23,
            "snr": -23,
            "drift": 0,
            "version": "wspr-zero",
            "code": 1
        },
        {
            "id": "7751326048",
            "time": "2024-05-27 04:10:00",
            "band": 10,
            "rx_sign": "K6FTP",
            "rx_lat": 34.438,
            "rx_lon": -119.875,
            "rx_loc": "DM04bk",
            "tx_sign": "K7FZO",
            "tx_lat": 47.479,
            "tx_lon": -121.708,
            "tx_loc": "CN97dl",
            "distance": 1458,
            "azimuth": 173,
            "rx_azimuth": 354,
            "frequency": 10140281,
            "power": 23,
            "snr": -9,
            "drift": 0,
            "version": "wspr-zero",
            "code": 1
        },
        {
            "id": "7751326081",
            "time": "2024-05-27 04:10:00",
            "band": 10,
            "rx_sign": "K6FTP",
            "rx_lat": 34.438,
            "rx_lon": -119.875,
            "rx_loc": "DM04bk",
            "tx_sign": "W6VJT",
            "tx_lat": 32.479,
            "tx_lon": -107.042,
            "tx_loc": "DM62",
            "distance": 1209,
            "azimuth": 284,
            "rx_azimuth": 96,
            "frequency": 10140207,
            "power": 20,
            "snr": -10,
            "drift": 0,
            "version": "wspr-zero",
            "code": 1
        },
        {
            "id": "7751326111",
            "time": "2024-05-27 04:10:00",
            "band": 10,
            "rx_sign": "K6FTP",
            "rx_lat": 34.438,
            "rx_lon": -119.875,
            "rx_loc": "DM04bk",
            "tx_sign": "AE7KH",
            "tx_lat": 45.479,
            "tx_lon": -123.042,
            "tx_loc": "CN85",
            "distance": 1257,
            "azimuth": 167,
            "rx_azimuth": 348,
            "frequency": 10140121,
            "power": 23,
            "snr": -13,
            "drift": 0,
            "version": "wspr-zero",
            "code": 1
        },
        {
            "id": "7751326149",
            "time": "2024-05-27 04:10:00",
            "band": 10,
            "rx_sign": "K6FTP",
            "rx_lat": 34.438,
            "rx_lon": -119.875,
            "rx_loc": "DM04bk",
            "tx_sign": "KA7FTP",
            "tx_lat": 40.479,
            "tx_lon": -111.042,
            "tx_loc": "DN40",
            "distance": 1028,
            "azimuth": 232,
            "rx_azimuth": 46,
            "frequency": 10140182,
            "power": 23,
            "snr": -18,
            "drift": 0,
            "version": "wspr-zero",
            "code": 1
        },
        {
            "id": "7751326177",
            "time": "2024-05-27 04:10:00",
            "band": 10,
            "rx_sign": "K6FTP",
            "rx_lat": 34.438,
            "rx_lon": -119.875,
            "rx_loc": "DM04bk",
            "tx_sign": "K4AGR",
            "tx_lat": 31.104,
            "tx_lon": -85.458,
            "tx_loc": "EM71gc",
            "distance": 3224,
            "azimuth": 286,
            "rx_azimuth": 86,
            "frequency": 10140290,
            "power": 23,
            "snr": -19,
            "drift": 0,
            "version": "wspr-zero",
            "code": 1
        },
        {
            "id": "7751336173",
            "time": "2024-05-27 04:12:00",
            "band": 10,
            "rx_sign": "K6FTP",
            "rx_lat": 34.438,
            "rx_lon": -119.875,
            "rx_loc": "DM04bk",
            "tx_sign": "KA8JMW",
            "tx_lat": 35.104,
            "tx_lon": -106.292,
            "tx_loc": "DM65uc",
            "distance": 1242,
            "azimuth": 270,
            "rx_azimuth": 82,
            "frequency": 10140183,
            "power": 23,
            "snr": -10,
            "drift": 0,
            "version": "wspr-zero",
            "code": 1
        },
        {
            "id": "7751336199",
            "time": "2024-05-27 04:12:00",
            "band": 10,
            "rx_sign": "K6FTP",
            "rx_lat": 34.438,
            "rx_lon": -119.875,
            "rx_loc": "DM04bk",
            "tx_sign": "VA7GEM",
            "tx_lat": 49.354,
            "tx_lon": -123.042,
            "tx_loc": "CN89li",
            "distance": 1679,
            "azimuth": 170,
            "rx_azimuth": 352,
            "frequency": 10140225,
            "power": 30,
            "snr": -18,
            "drift": 0,
            "version": "wspr-zero",
            "code": 1
        },
        {
            "id": "7751343923",
            "time": "2024-05-27 04:14:00",
            "band": 10,
            "rx_sign": "K6FTP",
            "rx_lat": 34.438,
            "rx_lon": -119.875,
            "rx_loc": "DM04bk",
            "tx_sign": "AE7KH",
            "tx_lat": 45.479,
            "tx_lon": -123.042,
            "tx_loc": "CN85",
            "distance": 1257,
            "azimuth": 167,
            "rx_azimuth": 348,
            "frequency": 10140212,
            "power": 23,
            "snr": -13,
            "drift": 0,
            "version": "wspr-zero",
            "code": 1
        },
        {
            "id": "7751343961",
            "time": "2024-05-27 04:14:00",
            "band": 10,
            "rx_sign": "K6FTP",
            "rx_lat": 34.438,
            "rx_lon": -119.875,
            "rx_loc": "DM04bk",
            "tx_sign": "VE7AHT",
            "tx_lat": 49.104,
            "tx_lon": -123.042,
            "tx_loc": "CN89lc",
            "distance": 1651,
            "azimuth": 170,
            "rx_azimuth": 351,
            "frequency": 10140206,
            "power": 33,
            "snr": -17,
            "drift": 0,
            "version": "wspr-zero",
            "code": 1
        },
        {
            "id": "7751343991",
            "time": "2024-05-27 04:14:00",
            "band": 10,
            "rx_sign": "K6FTP",
            "rx_lat": 34.438,
            "rx_lon": -119.875,
            "rx_loc": "DM04bk",
            "tx_sign": "KE7Z",
            "tx_lat": 48.104,
            "tx_lon": -123.542,
            "tx_loc": "CN88fc",
            "distance": 1550,
            "azimuth": 167,
            "rx_azimuth": 349,
            "frequency": 10140179,
            "power": 23,
            "snr": -18,
            "drift": 0,
            "version": "wspr-zero",
            "code": 1
        },
        {
            "id": "7751353858",
            "time": "2024-05-27 04:16:00",
            "band": 10,
            "rx_sign": "K6FTP",
            "rx_lat": 34.438,
            "rx_lon": -119.875,
            "rx_loc": "DM04bk",
            "tx_sign": "K1MEA",
            "tx_lat": 33.646,
            "tx_lon": -112.375,
            "tx_loc": "DM33tp",
            "distance": 696,
            "azimuth": 279,
            "rx_azimuth": 95,
            "frequency": 10140115,
            "power": 37,
            "snr": -19,
            "drift": 0,
            "version": "wspr-zero",
            "code": 1
        },
        {
            "id": "7751353839",
            "time": "2024-05-27 04:16:00",
            "band": 10,
            "rx_sign": "K6FTP",
            "rx_lat": 34.438,
            "rx_lon": -119.875,
            "rx_loc": "DM04bk",
            "tx_sign": "W3AVV",
            "tx_lat": 36.479,
            "tx_lon": -115.042,
            "tx_loc": "DM26",
            "distance": 493,
            "azimuth": 244,
            "rx_azimuth": 61,
            "frequency": 10140143,
            "power": 23,
            "snr": -17,
            "drift": 0,
            "version": "wspr-zero",
            "code": 1
        },
        {
            "id": "7751353875",
            "time": "2024-05-27 04:16:00",
            "band": 10,
            "rx_sign": "K6FTP",
            "rx_lat": 34.438,
            "rx_lon": -119.875,
            "rx_loc": "DM04bk",
            "tx_sign": "W3HH",
            "tx_lat": 29.063,
            "tx_lon": -82.208,
            "tx_loc": "EL89vb",
            "distance": 3591,
            "azimuth": 289,
            "rx_azimuth": 88,
            "frequency": 10140162,
            "power": 33,
            "snr": -19,
            "drift": 0,
            "version": "wspr-zero",
            "code": 1
        },
        {
            "id": "7751361458",
            "time": "2024-05-27 04:18:00",
            "band": 10,
            "rx_sign": "K6FTP",
            "rx_lat": 34.438,
            "rx_lon": -119.875,
            "rx_loc": "DM04bk",
            "tx_sign": "AE7KH",
            "tx_lat": 45.479,
            "tx_lon": -123.042,
            "tx_loc": "CN85",
            "distance": 1257,
            "azimuth": 167,
            "rx_azimuth": 348,
            "frequency": 10140124,
            "power": 23,
            "snr": -9,
            "drift": 0,
            "version": "wspr-zero",
            "code": 1
        },
        {
            "id": "7751361479",
            "time": "2024-05-27 04:18:00",
            "band": 10,
            "rx_sign": "K6FTP",
            "rx_lat": 34.438,
            "rx_lon": -119.875,
            "rx_loc": "DM04bk",
            "tx_sign": "N6RY",
            "tx_lat": 33.646,
            "tx_lon": -112.458,
            "tx_loc": "DM33sp",
            "distance": 689,
            "azimuth": 279,
            "rx_azimuth": 95,
            "frequency": 10140286,
            "power": 37,
            "snr": -13,
            "drift": 0,
            "version": "wspr-zero",
            "code": 1
        },
        {
            "id": "7751361493",
            "time": "2024-05-27 04:18:00",
            "band": 10,
            "rx_sign": "K6FTP",
            "rx_lat": 34.438,
            "rx_lon": -119.875,
            "rx_loc": "DM04bk",
            "tx_sign": "K7FET",
            "tx_lat": 45.521,
            "tx_lon": -122.958,
            "tx_loc": "CN85mm",
            "distance": 1260,
            "azimuth": 167,
            "rx_azimuth": 348,
            "frequency": 10140231,
            "power": 30,
            "snr": -17,
            "drift": 0,
            "version": "wspr-zero",
            "code": 1
        },
        {
            "id": "7751370302",
            "time": "2024-05-27 04:20:00",
            "band": 10,
            "rx_sign": "K6FTP",
            "rx_lat": 34.438,
            "rx_lon": -119.875,
            "rx_loc": "DM04bk",
            "tx_sign": "KA7FTP",
            "tx_lat": 40.479,
            "tx_lon": -111.042,
            "tx_loc": "DN40",
            "distance": 1028,
            "azimuth": 232,
            "rx_azimuth": 46,
            "frequency": 10140182,
            "power": 23,
            "snr": -6,
            "drift": 0,
            "version": "wspr-zero",
            "code": 1
        },
        {
            "id": "7751370317",
            "time": "2024-05-27 04:20:00",
            "band": 10,
            "rx_sign": "K6FTP",
            "rx_lat": 34.438,
            "rx_lon": -119.875,
            "rx_loc": "DM04bk",
            "tx_sign": "W5KV",
            "tx_lat": 39.646,
            "tx_lon": -104.792,
            "tx_loc": "DM79op",
            "distance": 1456,
            "azimuth": 251,
            "rx_azimuth": 62,
            "frequency": 10140250,
            "power": 23,
            "snr": -13,
            "drift": 0,
            "version": "wspr-zero",
            "code": 1
        },
        {
            "id": "7751370339",
            "time": "2024-05-27 04:20:00",
            "band": 10,
            "rx_sign": "K6FTP",
            "rx_lat": 34.438,
            "rx_lon": -119.875,
            "rx_loc": "DM04bk",
            "tx_sign": "NE7H",
            "tx_lat": 45.479,
            "tx_lon": -123.042,
            "tx_loc": "CN85",
            "distance": 1257,
            "azimuth": 167,
            "rx_azimuth": 348,
            "frequency": 10140211,
            "power": 23,
            "snr": -20,
            "drift": 0,
            "version": "wspr-zero",
            "code": 1
        },
        {
            "id": "7751378925",
            "time": "2024-05-27 04:22:00",
            "band": 10,
            "rx_sign": "K6FTP",
            "rx_lat": 34.438,
            "rx_lon": -119.875,
            "rx_loc": "DM04bk",
            "tx_sign": "AE7KH",
            "tx_lat": 45.479,
            "tx_lon": -123.042,
            "tx_loc": "CN85",
            "distance": 1257,
            "azimuth": 167,
            "rx_azimuth": 348,
            "frequency": 10140215,
            "power": 23,
            "snr": -16,
            "drift": 0,
            "version": "wspr-zero",
            "code": 1
        },
        {
            "id": "7751378956",
            "time": "2024-05-27 04:22:00",
            "band": 10,
            "rx_sign": "K6FTP",
            "rx_lat": 34.438,
            "rx_lon": -119.875,
            "rx_loc": "DM04bk",
            "tx_sign": "KF5RX",
            "tx_lat": 30.646,
            "tx_lon": -97.542,
            "tx_loc": "EM10fp",
            "distance": 2131,
            "azimuth": 287,
            "rx_azimuth": 95,
            "frequency": 10140292,
            "power": 23,
            "snr": -22,
            "drift": 0,
            "version": "wspr-zero",
            "code": 1
        },
        {
            "id": "7751378993",
            "time": "2024-05-27 04:22:00",
            "band": 10,
            "rx_sign": "K6FTP",
            "rx_lat": 34.438,
            "rx_lon": -119.875,
            "rx_loc": "DM04bk",
            "tx_sign": "K1MEA",
            "tx_lat": 33.646,
            "tx_lon": -112.375,
            "tx_loc": "DM33tp",
            "distance": 696,
            "azimuth": 279,
            "rx_azimuth": 95,
            "frequency": 10140115,
            "power": 37,
            "snr": -24,
            "drift": 0,
            "version": "wspr-zero",
            "code": 1
        },
        {
            "id": "7751386792",
            "time": "2024-05-27 04:24:00",
            "band": 10,
            "rx_sign": "K6FTP",
            "rx_lat": 34.438,
            "rx_lon": -119.875,
            "rx_loc": "DM04bk",
            "tx_sign": "VE7AHT",
            "tx_lat": 49.104,
            "tx_lon": -123.042,
            "tx_loc": "CN89lc",
            "distance": 1651,
            "azimuth": 170,
            "rx_azimuth": 351,
            "frequency": 10140206,
            "power": 33,
            "snr": -9,
            "drift": 0,
            "version": "wspr-zero",
            "code": 1
        },
        {
            "id": "7751397520",
            "time": "2024-05-27 04:26:00",
            "band": 10,
            "rx_sign": "K6FTP",
            "rx_lat": 34.438,
            "rx_lon": -119.875,
            "rx_loc": "DM04bk",
            "tx_sign": "AE7KH",
            "tx_lat": 45.479,
            "tx_lon": -123.042,
            "tx_loc": "CN85",
            "distance": 1257,
            "azimuth": 167,
            "rx_azimuth": 348,
            "frequency": 10140127,
            "power": 23,
            "snr": -10,
            "drift": 0,
            "version": "wspr-zero",
            "code": 1
        },
        {
            "id": "7751397544",
            "time": "2024-05-27 04:26:00",
            "band": 10,
            "rx_sign": "K6FTP",
            "rx_lat": 34.438,
            "rx_lon": -119.875,
            "rx_loc": "DM04bk",
            "tx_sign": "W0QL",
            "tx_lat": 39.813,
            "tx_lon": -104.792,
            "tx_loc": "DM79ot",
            "distance": 1462,
            "azimuth": 251,
            "rx_azimuth": 61,
            "frequency": 10140263,
            "power": 23,
            "snr": -16,
            "drift": 0,
            "version": "wspr-zero",
            "code": 1
        },
        {
            "id": "7751397581",
            "time": "2024-05-27 04:26:00",
            "band": 10,
            "rx_sign": "K6FTP",
            "rx_lat": 34.438,
            "rx_lon": -119.875,
            "rx_loc": "DM04bk",
            "tx_sign": "KA8JMW",
            "tx_lat": 35.104,
            "tx_lon": -106.292,
            "tx_loc": "DM65uc",
            "distance": 1242,
            "azimuth": 270,
            "rx_azimuth": 82,
            "frequency": 10140286,
            "power": 23,
            "snr": -16,
            "drift": 0,
            "version": "wspr-zero",
            "code": 1
        },
        {
            "id": "7751397609",
            "time": "2024-05-27 04:26:00",
            "band": 10,
            "rx_sign": "K6FTP",
            "rx_lat": 34.438,
            "rx_lon": -119.875,
            "rx_loc": "DM04bk",
            "tx_sign": "KD0MVQ",
            "tx_lat": 38.479,
            "tx_lon": -95.042,
            "tx_loc": "EM28",
            "distance": 2259,
            "azimuth": 266,
            "rx_azimuth": 71,
            "frequency": 10140232,
            "power": 23,
            "snr": -17,
            "drift": 0,
            "version": "wspr-zero",
            "code": 1
        },
        {
            "id": "7751397642",
            "time": "2024-05-27 04:26:00",
            "band": 10,
            "rx_sign": "K6FTP",
            "rx_lat": 34.438,
            "rx_lon": -119.875,
            "rx_loc": "DM04bk",
            "tx_sign": "VE6DAI",
            "tx_lat": 53.521,
            "tx_lon": -113.625,
            "tx_loc": "DO33em",
            "distance": 2178,
            "azimuth": 196,
            "rx_azimuth": 11,
            "frequency": 10140119,
            "power": 33,
            "snr": -19,
            "drift": 0,
            "version": "wspr-zero",
            "code": 1
        },
        {
            "id": "7751397674",
            "time": "2024-05-27 04:26:00",
            "band": 10,
            "rx_sign": "K6FTP",
            "rx_lat": 34.438,
            "rx_lon": -119.875,
            "rx_loc": "DM04bk",
            "tx_sign": "W3HH",
            "tx_lat": 29.063,
            "tx_lon": -82.208,
            "tx_loc": "EL89vb",
            "distance": 3591,
            "azimuth": 289,
            "rx_azimuth": 88,
            "frequency": 10140162,
            "power": 33,
            "snr": -19,
            "drift": 0,
            "version": "wspr-zero",
            "code": 1
        },
        {
            "id": "7751407502",
            "time": "2024-05-27 04:28:00",
            "band": 10,
            "rx_sign": "K6FTP",
            "rx_lat": 34.438,
            "rx_lon": -119.875,
            "rx_loc": "DM04bk",
            "tx_sign": "KI5MPX",
            "tx_lat": 35.188,
            "tx_lon": -101.875,
            "tx_loc": "DM95be",
            "distance": 1643,
            "azimuth": 272,
            "rx_azimuth": 81,
            "frequency": 10140229,
            "power": 23,
            "snr": -16,
            "drift": 0,
            "version": "wspr-zero",
            "code": 1
        },
        {
            "id": "7751407536",
            "time": "2024-05-27 04:28:00",
            "band": 10,
            "rx_sign": "K6FTP",
            "rx_lat": 34.438,
            "rx_lon": -119.875,
            "rx_loc": "DM04bk",
            "tx_sign": "K7FZO",
            "tx_lat": 47.479,
            "tx_lon": -121.708,
            "tx_loc": "CN97dl",
            "distance": 1458,
            "azimuth": 173,
            "rx_azimuth": 354,
            "frequency": 10140177,
            "power": 23,
            "snr": -18,
            "drift": 0,
            "version": "wspr-zero",
            "code": 1
        },
        {
            "id": "7751407576",
            "time": "2024-05-27 04:28:00",
            "band": 10,
            "rx_sign": "K6FTP",
            "rx_lat": 34.438,
            "rx_lon": -119.875,
            "rx_loc": "DM04bk",
            "tx_sign": "KW4TN",
            "tx_lat": 35.854,
            "tx_lon": -84.208,
            "tx_loc": "EM75vu",
            "distance": 3229,
            "azimuth": 278,
            "rx_azimuth": 76,
            "frequency": 10140267,
            "power": 37,
            "snr": -19,
            "drift": 0,
            "version": "wspr-zero",
            "code": 1
        },
        {
            "id": "7751407613",
            "time": "2024-05-27 04:28:00",
            "band": 10,
            "rx_sign": "K6FTP",
            "rx_lat": 34.438,
            "rx_lon": -119.875,
            "rx_loc": "DM04bk",
            "tx_sign": "K0ANS",
            "tx_lat": 40.146,
            "tx_lon": -105.125,
            "tx_loc": "DN70kd",
            "distance": 1448,
            "azimuth": 249,
            "rx_azimuth": 59,
            "frequency": 10140299,
            "power": 23,
            "snr": -21,
            "drift": 0,
            "version": "wspr-zero",
            "code": 1
        },
        {
            "id": "7751407648",
            "time": "2024-05-27 04:28:00",
            "band": 10,
            "rx_sign": "K6FTP",
            "rx_lat": 34.438,
            "rx_lon": -119.875,
            "rx_loc": "DM04bk",
            "tx_sign": "W1CK",
            "tx_lat": 33.188,
            "tx_lon": -117.292,
            "tx_loc": "DM13ie",
            "distance": 276,
            "azimuth": 301,
            "rx_azimuth": 119,
            "frequency": 10140106,
            "power": 33,
            "snr": -22,
            "drift": 0,
            "version": "wspr-zero",
            "code": 1
        },
        {
            "id": "7751417738",
            "time": "2024-05-27 04:30:00",
            "band": 10,
            "rx_sign": "K6FTP",
            "rx_lat": 34.438,
            "rx_lon": -119.875,
            "rx_loc": "DM04bk",
            "tx_sign": "AE7KH",
            "tx_lat": 45.479,
            "tx_lon": -123.042,
            "tx_loc": "CN85",
            "distance": 1257,
            "azimuth": 167,
            "rx_azimuth": 348,
            "frequency": 10140218,
            "power": 23,
            "snr": -4,
            "drift": 0,
            "version": "wspr-zero",
            "code": 1
        },
        {
            "id": "7751417770",
            "time": "2024-05-27 04:30:00",
            "band": 10,
            "rx_sign": "K6FTP",
            "rx_lat": 34.438,
            "rx_lon": -119.875,
            "rx_loc": "DM04bk",
            "tx_sign": "KA7FTP",
            "tx_lat": 40.479,
            "tx_lon": -111.042,
            "tx_loc": "DN40",
            "distance": 1028,
            "azimuth": 232,
            "rx_azimuth": 46,
            "frequency": 10140183,
            "power": 23,
            "snr": -13,
            "drift": 0,
            "version": "wspr-zero",
            "code": 1
        },
        {
            "id": "7751427305",
            "time": "2024-05-27 04:32:00",
            "band": 10,
            "rx_sign": "K6FTP",
            "rx_lat": 34.438,
            "rx_lon": -119.875,
            "rx_loc": "DM04bk",
            "tx_sign": "K7FET",
            "tx_lat": 45.521,
            "tx_lon": -122.958,
            "tx_loc": "CN85mm",
            "distance": 1260,
            "azimuth": 167,
            "rx_azimuth": 348,
            "frequency": 10140231,
            "power": 30,
            "snr": -18,
            "drift": 0,
            "version": "wspr-zero",
            "code": 1
        },
        {
            "id": "7751427335",
            "time": "2024-05-27 04:32:00",
            "band": 10,
            "rx_sign": "K6FTP",
            "rx_lat": 34.438,
            "rx_lon": -119.875,
            "rx_loc": "DM04bk",
            "tx_sign": "KF4JU",
            "tx_lat": 27.813,
            "tx_lon": -82.708,
            "tx_loc": "EL87pt",
            "distance": 3593,
            "azimuth": 291,
            "rx_azimuth": 91,
            "frequency": 10140290,
            "power": 37,
            "snr": -23,
            "drift": 0,
            "version": "wspr-zero",
            "code": 1
        },
        {
            "id": "7751427358",
            "time": "2024-05-27 04:32:00",
            "band": 10,
            "rx_sign": "K6FTP",
            "rx_lat": 34.438,
            "rx_lon": -119.875,
            "rx_loc": "DM04bk",
            "tx_sign": "W3AVV",
            "tx_lat": 36.479,
            "tx_lon": -115.042,
            "tx_loc": "DM26",
            "distance": 493,
            "azimuth": 244,
            "rx_azimuth": 61,
            "frequency": 10140160,
            "power": 23,
            "snr": -24,
            "drift": 0,
            "version": "wspr-zero",
            "code": 1
        },
        {
            "id": "7751436377",
            "time": "2024-05-27 04:34:00",
            "band": 10,
            "rx_sign": "K6FTP",
            "rx_lat": 34.438,
            "rx_lon": -119.875,
            "rx_loc": "DM04bk",
            "tx_sign": "VE7AHT",
            "tx_lat": 49.104,
            "tx_lon": -123.042,
            "tx_loc": "CN89lc",
            "distance": 1651,
            "azimuth": 170,
            "rx_azimuth": 351,
            "frequency": 10140208,
            "power": 33,
            "snr": -14,
            "drift": 0,
            "version": "wspr-zero",
            "code": 1
        },
        {
            "id": "7751436398",
            "time": "2024-05-27 04:34:00",
            "band": 10,
            "rx_sign": "K6FTP",
            "rx_lat": 34.438,
            "rx_lon": -119.875,
            "rx_loc": "DM04bk",
            "tx_sign": "K4AGR",
            "tx_lat": 31.104,
            "tx_lon": -85.458,
            "tx_loc": "EM71gc",
            "distance": 3224,
            "azimuth": 286,
            "rx_azimuth": 86,
            "frequency": 10140164,
            "power": 23,
            "snr": -26,
            "drift": 0,
            "version": "wspr-zero",
            "code": 1
        },
        {
            "id": "7751444330",
            "time": "2024-05-27 04:36:00",
            "band": 10,
            "rx_sign": "K6FTP",
            "rx_lat": 34.438,
            "rx_lon": -119.875,
            "rx_loc": "DM04bk",
            "tx_sign": "VE7AV",
            "tx_lat": 53.813,
            "tx_lon": -122.792,
            "tx_loc": "CO83ot",
            "distance": 2166,
            "azimuth": 173,
            "rx_azimuth": 354,
            "frequency": 10140166,
            "power": 23,
            "snr": -15,
            "drift": 0,
            "version": "wspr-zero",
            "code": 1
        },
        {
            "id": "7751444359",
            "time": "2024-05-27 04:36:00",
            "band": 10,
            "rx_sign": "K6FTP",
            "rx_lat": 34.438,
            "rx_lon": -119.875,
            "rx_loc": "DM04bk",
            "tx_sign": "N5AQM",
            "tx_lat": 33.313,
            "tx_lon": -111.958,
            "tx_loc": "DM43ah",
            "distance": 741,
            "azimuth": 282,
            "rx_azimuth": 97,
            "frequency": 10140220,
            "power": 27,
            "snr": -18,
            "drift": 0,
            "version": "wspr-zero",
            "code": 1
        },
        {
            "id": "7751444382",
            "time": "2024-05-27 04:36:00",
            "band": 10,
            "rx_sign": "K6FTP",
            "rx_lat": 34.438,
            "rx_lon": -119.875,
            "rx_loc": "DM04bk",
            "tx_sign": "K7UV",
            "tx_lat": 41.521,
            "tx_lon": -112.042,
            "tx_loc": "DN31xm",
            "distance": 1044,
            "azimuth": 224,
            "rx_azimuth": 38,
            "frequency": 10140207,
            "power": 20,
            "snr": -19,
            "drift": 0,
            "version": "wspr-zero",
            "code": 1
        },
        {
            "id": "7751452119",
            "time": "2024-05-27 04:38:00",
            "band": 10,
            "rx_sign": "K6FTP",
            "rx_lat": 34.438,
            "rx_lon": -119.875,
            "rx_loc": "DM04bk",
            "tx_sign": "KW4TN",
            "tx_lat": 35.854,
            "tx_lon": -84.208,
            "tx_loc": "EM75vu",
            "distance": 3229,
            "azimuth": 278,
            "rx_azimuth": 76,
            "frequency": 10140267,
            "power": 37,
            "snr": -20,
            "drift": 0,
            "version": "wspr-zero",
            "code": 1
        },
        {
            "id": "7751452006",
            "time": "2024-05-27 04:38:00",
            "band": 10,
            "rx_sign": "K6FTP",
            "rx_lat": 34.438,
            "rx_lon": -119.875,
            "rx_loc": "DM04bk",
            "tx_sign": "AE7KH",
            "tx_lat": 45.479,
            "tx_lon": -123.042,
            "tx_loc": "CN85",
            "distance": 1257,
            "azimuth": 167,
            "rx_azimuth": 348,
            "frequency": 10140221,
            "power": 23,
            "snr": -16,
            "drift": 0,
            "version": "wspr-zero",
            "code": 1
        },
        {
            "id": "7751452037",
            "time": "2024-05-27 04:38:00",
            "band": 10,
            "rx_sign": "K6FTP",
            "rx_lat": 34.438,
            "rx_lon": -119.875,
            "rx_loc": "DM04bk",
            "tx_sign": "KE7Z",
            "tx_lat": 48.104,
            "tx_lon": -123.542,
            "tx_loc": "CN88fc",
            "distance": 1550,
            "azimuth": 167,
            "rx_azimuth": 349,
            "frequency": 10140179,
            "power": 23,
            "snr": -17,
            "drift": 0,
            "version": "wspr-zero",
            "code": 1
        },
        {
            "id": "7751452068",
            "time": "2024-05-27 04:38:00",
            "band": 10,
            "rx_sign": "K6FTP",
            "rx_lat": 34.438,
            "rx_lon": -119.875,
            "rx_loc": "DM04bk",
            "tx_sign": "W5KV",
            "tx_lat": 39.646,
            "tx_lon": -104.792,
            "tx_loc": "DM79op",
            "distance": 1456,
            "azimuth": 251,
            "rx_azimuth": 62,
            "frequency": 10140210,
            "power": 23,
            "snr": -19,
            "drift": 0,
            "version": "wspr-zero",
            "code": 1
        },
        {
            "id": "7751452098",
            "time": "2024-05-27 04:38:00",
            "band": 10,
            "rx_sign": "K6FTP",
            "rx_lat": 34.438,
            "rx_lon": -119.875,
            "rx_loc": "DM04bk",
            "tx_sign": "VE6DAI",
            "tx_lat": 53.521,
            "tx_lon": -113.625,
            "tx_loc": "DO33em",
            "distance": 2178,
            "azimuth": 196,
            "rx_azimuth": 11,
            "frequency": 10140245,
            "power": 33,
            "snr": -20,
            "drift": 0,
            "version": "wspr-zero",
            "code": 1
        },
        {
            "id": "7751451978",
            "time": "2024-05-27 04:38:00",
            "band": 10,
            "rx_sign": "K6FTP",
            "rx_lat": 34.438,
            "rx_lon": -119.875,
            "rx_loc": "DM04bk",
            "tx_sign": "W3HH",
            "tx_lat": 29.063,
            "tx_lon": -82.208,
            "tx_loc": "EL89vb",
            "distance": 3591,
            "azimuth": 289,
            "rx_azimuth": 88,
            "frequency": 10140163,
            "power": 33,
            "snr": -16,
            "drift": 0,
            "version": "wspr-zero",
            "code": 1
        },
        {
            "id": "7751459811",
            "time": "2024-05-27 04:40:00",
            "band": 10,
            "rx_sign": "K6FTP",
            "rx_lat": 34.438,
            "rx_lon": -119.875,
            "rx_loc": "DM04bk",
            "tx_sign": "KA8JMW",
            "tx_lat": 35.104,
            "tx_lon": -106.292,
            "tx_loc": "DM65uc",
            "distance": 1242,
            "azimuth": 270,
            "rx_azimuth": 82,
            "frequency": 10140273,
            "power": 23,
            "snr": -7,
            "drift": 0,
            "version": "wspr-zero",
            "code": 1
        },
        {
            "id": "7751459840",
            "time": "2024-05-27 04:40:00",
            "band": 10,
            "rx_sign": "K6FTP",
            "rx_lat": 34.438,
            "rx_lon": -119.875,
            "rx_loc": "DM04bk",
            "tx_sign": "KA7FTP",
            "tx_lat": 40.479,
            "tx_lon": -111.042,
            "tx_loc": "DN40",
            "distance": 1028,
            "azimuth": 232,
            "rx_azimuth": 46,
            "frequency": 10140183,
            "power": 23,
            "snr": -16,
            "drift": 0,
            "version": "wspr-zero",
            "code": 1
        },
        {
            "id": "7751459866",
            "time": "2024-05-27 04:40:00",
            "band": 10,
            "rx_sign": "K6FTP",
            "rx_lat": 34.438,
            "rx_lon": -119.875,
            "rx_loc": "DM04bk",
            "tx_sign": "KD9HZA",
            "tx_lat": 43.104,
            "tx_lon": -88.958,
            "tx_loc": "EN53mc",
            "distance": 2829,
            "azimuth": 261,
            "rx_azimuth": 60,
            "frequency": 10140249,
            "power": 30,
            "snr": -19,
            "drift": 0,
            "version": "wspr-zero",
            "code": 1
        },
        {
            "id": "7751459894",
            "time": "2024-05-27 04:40:00",
            "band": 10,
            "rx_sign": "K6FTP",
            "rx_lat": 34.438,
            "rx_lon": -119.875,
            "rx_loc": "DM04bk",
            "tx_sign": "WA3DNM",
            "tx_lat": 39.938,
            "tx_lon": -75.542,
            "tx_loc": "FM29fw",
            "distance": 3934,
            "azimuth": 275,
            "rx_azimuth": 67,
            "frequency": 10140195,
            "power": 37,
            "snr": -19,
            "drift": 0,
            "version": "wspr-zero",
            "code": 1
        },
        {
            "id": "7751459927",
            "time": "2024-05-27 04:40:00",
            "band": 10,
            "rx_sign": "K6FTP",
            "rx_lat": 34.438,
            "rx_lon": -119.875,
            "rx_loc": "DM04bk",
            "tx_sign": "AK7U",
            "tx_lat": 45.396,
            "tx_lon": -122.958,
            "tx_loc": "CN85mj",
            "distance": 1246,
            "azimuth": 167,
            "rx_azimuth": 348,
            "frequency": 10140294,
            "power": 23,
            "snr": -23,
            "drift": 0,
            "version": "wspr-zero",
            "code": 1
        },
        {
            "id": "7751470328",
            "time": "2024-05-27 04:42:00",
            "band": 10,
            "rx_sign": "K6FTP",
            "rx_lat": 34.438,
            "rx_lon": -119.875,
            "rx_loc": "DM04bk",
            "tx_sign": "WB0RLJ",
            "tx_lat": 41.146,
            "tx_lon": -96.208,
            "tx_loc": "EN11vd",
            "distance": 2201,
            "azimuth": 258,
            "rx_azimuth": 63,
            "frequency": 10140285,
            "power": 23,
            "snr": -20,
            "drift": 0,
            "version": "wspr-zero",
            "code": 1
        },
        {
            "id": "7751470303",
            "time": "2024-05-27 04:42:00",
            "band": 10,
            "rx_sign": "K6FTP",
            "rx_lat": 34.438,
            "rx_lon": -119.875,
            "rx_loc": "DM04bk",
            "tx_sign": "W5NR",
            "tx_lat": 30.646,
            "tx_lon": -97.708,
            "tx_loc": "EM10dp",
            "distance": 2116,
            "azimuth": 287,
            "rx_azimuth": 95,
            "frequency": 10140208,
            "power": 23,
            "snr": -16,
            "drift": 0,
            "version": "wspr-zero",
            "code": 1
        },
        {
            "id": "7751470280",
            "time": "2024-05-27 04:42:00",
            "band": 10,
            "rx_sign": "K6FTP",
            "rx_lat": 34.438,
            "rx_lon": -119.875,
            "rx_loc": "DM04bk",
            "tx_sign": "AE7KH",
            "tx_lat": 45.479,
            "tx_lon": -123.042,
            "tx_loc": "CN85",
            "distance": 1257,
            "azimuth": 167,
            "rx_azimuth": 348,
            "frequency": 10140133,
            "power": 23,
            "snr": -13,
            "drift": 0,
            "version": "wspr-zero",
            "code": 1
        },
        {
            "id": "7751470356",
            "time": "2024-05-27 04:42:00",
            "band": 10,
            "rx_sign": "K6FTP",
            "rx_lat": 34.438,
            "rx_lon": -119.875,
            "rx_loc": "DM04bk",
            "tx_sign": "W5GNB",
            "tx_lat": 33.063,
            "tx_lon": -104.208,
            "tx_loc": "DM73vb",
            "distance": 1455,
            "azimuth": 280,
            "rx_azimuth": 91,
            "frequency": 10140217,
            "power": 3,
            "snr": -22,
            "drift": 0,
            "version": "wspr-zero",
            "code": 1
        },
        {
            "id": "7751479524",
            "time": "2024-05-27 04:44:00",
            "band": 10,
            "rx_sign": "K6FTP",
            "rx_lat": 34.438,
            "rx_lon": -119.875,
            "rx_loc": "DM04bk",
            "tx_sign": "NE7H",
            "tx_lat": 45.479,
            "tx_lon": -123.042,
            "tx_loc": "CN85",
            "distance": 1257,
            "azimuth": 167,
            "rx_azimuth": 348,
            "frequency": 10140103,
            "power": 23,
            "snr": -14,
            "drift": 0,
            "version": "wspr-zero",
            "code": 1
        },
        {
            "id": "7751479541",
            "time": "2024-05-27 04:44:00",
            "band": 10,
            "rx_sign": "K6FTP",
            "rx_lat": 34.438,
            "rx_lon": -119.875,
            "rx_loc": "DM04bk",
            "tx_sign": "VE7AHT",
            "tx_lat": 49.104,
            "tx_lon": -123.042,
            "tx_loc": "CN89lc",
            "distance": 1651,
            "azimuth": 170,
            "rx_azimuth": 351,
            "frequency": 10140208,
            "power": 33,
            "snr": -17,
            "drift": 0,
            "version": "wspr-zero",
            "code": 1
        },
        {
            "id": "7751479559",
            "time": "2024-05-27 04:44:00",
            "band": 10,
            "rx_sign": "K6FTP",
            "rx_lat": 34.438,
            "rx_lon": -119.875,
            "rx_loc": "DM04bk",
            "tx_sign": "W0QL",
            "tx_lat": 39.813,
            "tx_lon": -104.792,
            "tx_loc": "DM79ot",
            "distance": 1462,
            "azimuth": 251,
            "rx_azimuth": 61,
            "frequency": 10140162,
            "power": 23,
            "snr": -21,
            "drift": 0,
            "version": "wspr-zero",
            "code": 1
        },
        {
            "id": "7751489662",
            "time": "2024-05-27 04:46:00",
            "band": 10,
            "rx_sign": "K6FTP",
            "rx_lat": 34.438,
            "rx_lon": -119.875,
            "rx_loc": "DM04bk",
            "tx_sign": "AE7KH",
            "tx_lat": 45.479,
            "tx_lon": -123.042,
            "tx_loc": "CN85",
            "distance": 1257,
            "azimuth": 167,
            "rx_azimuth": 348,
            "frequency": 10140224,
            "power": 23,
            "snr": -13,
            "drift": 0,
            "version": "wspr-zero",
            "code": 1
        },
        {
            "id": "7751489675",
            "time": "2024-05-27 04:46:00",
            "band": 10,
            "rx_sign": "K6FTP",
            "rx_lat": 34.438,
            "rx_lon": -119.875,
            "rx_loc": "DM04bk",
            "tx_sign": "AF5CX",
            "tx_lat": 34.479,
            "tx_lon": -107.042,
            "tx_loc": "DM64",
            "distance": 1176,
            "azimuth": 273,
            "rx_azimuth": 86,
            "frequency": 10140182,
            "power": 23,
            "snr": -16,
            "drift": 0,
            "version": "wspr-zero",
            "code": 1
        },
        {
            "id": "7751489690",
            "time": "2024-05-27 04:46:00",
            "band": 10,
            "rx_sign": "K6FTP",
            "rx_lat": 34.438,
            "rx_lon": -119.875,
            "rx_loc": "DM04bk",
            "tx_sign": "W3HH",
            "tx_lat": 29.063,
            "tx_lon": -82.208,
            "tx_loc": "EL89vb",
            "distance": 3591,
            "azimuth": 289,
            "rx_azimuth": 88,
            "frequency": 10140163,
            "power": 33,
            "snr": -17,
            "drift": 0,
            "version": "wspr-zero",
            "code": 1
        },
        {
            "id": "7751499004",
            "time": "2024-05-27 04:48:00",
            "band": 10,
            "rx_sign": "K6FTP",
            "rx_lat": 34.438,
            "rx_lon": -119.875,
            "rx_loc": "DM04bk",
            "tx_sign": "WA7RGR",
            "tx_lat": 47.813,
            "tx_lon": -122.125,
            "tx_loc": "CN87wt",
            "distance": 1499,
            "azimuth": 172,
            "rx_azimuth": 353,
            "frequency": 10140256,
            "power": 23,
            "snr": -16,
            "drift": 0,
            "version": "wspr-zero",
            "code": 1
        },
        {
            "id": "7751499019",
            "time": "2024-05-27 04:48:00",
            "band": 10,
            "rx_sign": "K6FTP",
            "rx_lat": 34.438,
            "rx_lon": -119.875,
            "rx_loc": "DM04bk",
            "tx_sign": "N5AQM",
            "tx_lat": 33.313,
            "tx_lon": -111.958,
            "tx_loc": "DM43ah",
            "distance": 741,
            "azimuth": 282,
            "rx_azimuth": 97,
            "frequency": 10140219,
            "power": 27,
            "snr": -20,
            "drift": 0,
            "version": "wspr-zero",
            "code": 1
        },
        {
            "id": "7751499035",
            "time": "2024-05-27 04:48:00",
            "band": 10,
            "rx_sign": "K6FTP",
            "rx_lat": 34.438,
            "rx_lon": -119.875,
            "rx_loc": "DM04bk",
            "tx_sign": "KC5MO",
            "tx_lat": 30.229,
            "tx_lon": -97.875,
            "tx_loc": "EM10bf",
            "distance": 2115,
            "azimuth": 289,
            "rx_azimuth": 96,
            "frequency": 10140294,
            "power": 23,
            "snr": -20,
            "drift": 0,
            "version": "wspr-zero",
            "code": 1
        },
        {
            "id": "7751499048",
            "time": "2024-05-27 04:48:00",
            "band": 10,
            "rx_sign": "K6FTP",
            "rx_lat": 34.438,
            "rx_lon": -119.875,
            "rx_loc": "DM04bk",
            "tx_sign": "KW4TN",
            "tx_lat": 35.854,
            "tx_lon": -84.208,
            "tx_loc": "EM75vu",
            "distance": 3229,
            "azimuth": 278,
            "rx_azimuth": 76,
            "frequency": 10140268,
            "power": 37,
            "snr": -21,
            "drift": 0,
            "version": "wspr-zero",
            "code": 1
        },
        {
            "id": "7751499063",
            "time": "2024-05-27 04:48:00",
            "band": 10,
            "rx_sign": "K6FTP",
            "rx_lat": 34.438,
            "rx_lon": -119.875,
            "rx_loc": "DM04bk",
            "tx_sign": "N6RY",
            "tx_lat": 33.646,
            "tx_lon": -112.458,
            "tx_loc": "DM33sp",
            "distance": 689,
            "azimuth": 279,
            "rx_azimuth": 95,
            "frequency": 10140287,
            "power": 37,
            "snr": -21,
            "drift": 0,
            "version": "wspr-zero",
            "code": 1
        },
        {
            "id": "7751508974",
            "time": "2024-05-27 04:50:00",
            "band": 10,
            "rx_sign": "K6FTP",
            "rx_lat": 34.438,
            "rx_lon": -119.875,
            "rx_loc": "DM04bk",
            "tx_sign": "AE7KH",
            "tx_lat": 45.479,
            "tx_lon": -123.042,
            "tx_loc": "CN85",
            "distance": 1257,
            "azimuth": 167,
            "rx_azimuth": 348,
            "frequency": 10140136,
            "power": 23,
            "snr": -2,
            "drift": 0,
            "version": "wspr-zero",
            "code": 1
        },
        {
            "id": "7751508992",
            "time": "2024-05-27 04:50:00",
            "band": 10,
            "rx_sign": "K6FTP",
            "rx_lat": 34.438,
            "rx_lon": -119.875,
            "rx_loc": "DM04bk",
            "tx_sign": "VE6DAI",
            "tx_lat": 53.521,
            "tx_lon": -113.625,
            "tx_loc": "DO33em",
            "distance": 2178,
            "azimuth": 196,
            "rx_azimuth": 11,
            "frequency": 10140103,
            "power": 33,
            "snr": -21,
            "drift": 0,
            "version": "wspr-zero",
            "code": 1
        },
        {
            "id": "7751509013",
            "time": "2024-05-27 04:50:00",
            "band": 10,
            "rx_sign": "K6FTP",
            "rx_lat": 34.438,
            "rx_lon": -119.875,
            "rx_loc": "DM04bk",
            "tx_sign": "KE7Z",
            "tx_lat": 48.104,
            "tx_lon": -123.542,
            "tx_loc": "CN88fc",
            "distance": 1550,
            "azimuth": 167,
            "rx_azimuth": 349,
            "frequency": 10140179,
            "power": 23,
            "snr": -21,
            "drift": 0,
            "version": "wspr-zero",
            "code": 1
        },
        {
            "id": "7751517906",
            "time": "2024-05-27 04:52:00",
            "band": 10,
            "rx_sign": "K6FTP",
            "rx_lat": 34.438,
            "rx_lon": -119.875,
            "rx_loc": "DM04bk",
            "tx_sign": "AC8YE",
            "tx_lat": 40.479,
            "tx_lon": -83.042,
            "tx_loc": "EN80",
            "distance": 3295,
            "azimuth": 270,
            "rx_azimuth": 67,
            "frequency": 10140176,
            "power": 20,
            "snr": -23,
            "drift": 0,
            "version": "wspr-zero",
            "code": 1
        },
        {
            "id": "7751525619",
            "time": "2024-05-27 04:54:00",
            "band": 10,
            "rx_sign": "K6FTP",
            "rx_lat": 34.438,
            "rx_lon": -119.875,
            "rx_loc": "DM04bk",
            "tx_sign": "KA8JMW",
            "tx_lat": 35.104,
            "tx_lon": -106.292,
            "tx_loc": "DM65uc",
            "distance": 1242,
            "azimuth": 270,
            "rx_azimuth": 82,
            "frequency": 10140118,
            "power": 23,
            "snr": -8,
            "drift": 0,
            "version": "wspr-zero",
            "code": 1
        },
        {
            "id": "7751525645",
            "time": "2024-05-27 04:54:00",
            "band": 10,
            "rx_sign": "K6FTP",
            "rx_lat": 34.438,
            "rx_lon": -119.875,
            "rx_loc": "DM04bk",
            "tx_sign": "AE7KH",
            "tx_lat": 45.479,
            "tx_lon": -123.042,
            "tx_loc": "CN85",
            "distance": 1257,
            "azimuth": 167,
            "rx_azimuth": 348,
            "frequency": 10140227,
            "power": 23,
            "snr": -11,
            "drift": 0,
            "version": "wspr-zero",
            "code": 1
        },
        {
            "id": "7751525668",
            "time": "2024-05-27 04:54:00",
            "band": 10,
            "rx_sign": "K6FTP",
            "rx_lat": 34.438,
            "rx_lon": -119.875,
            "rx_loc": "DM04bk",
            "tx_sign": "KF5RX",
            "tx_lat": 30.646,
            "tx_lon": -97.542,
            "tx_loc": "EM10fp",
            "distance": 2131,
            "azimuth": 287,
            "rx_azimuth": 95,
            "frequency": 10140165,
            "power": 23,
            "snr": -17,
            "drift": 0,
            "version": "wspr-zero",
            "code": 1
        },
        {
            "id": "7751525692",
            "time": "2024-05-27 04:54:00",
            "band": 10,
            "rx_sign": "K6FTP",
            "rx_lat": 34.438,
            "rx_lon": -119.875,
            "rx_loc": "DM04bk",
            "tx_sign": "VE7AHT",
            "tx_lat": 49.104,
            "tx_lon": -123.042,
            "tx_loc": "CN89lc",
            "distance": 1651,
            "azimuth": 170,
            "rx_azimuth": 351,
            "frequency": 10140207,
            "power": 33,
            "snr": -18,
            "drift": 0,
            "version": "wspr-zero",
            "code": 1
        },
        {
            "id": "7751525712",
            "time": "2024-05-27 04:54:00",
            "band": 10,
            "rx_sign": "K6FTP",
            "rx_lat": 34.438,
            "rx_lon": -119.875,
            "rx_loc": "DM04bk",
            "tx_sign": "N7CHS",
            "tx_lat": 45.854,
            "tx_lon": -122.792,
            "tx_loc": "CN85ou",
            "distance": 1293,
            "azimuth": 168,
            "rx_azimuth": 349,
            "frequency": 10140296,
            "power": 33,
            "snr": -23,
            "drift": 0,
            "version": "wspr-zero",
            "code": 1
        },
        {
            "id": "7751534023",
            "time": "2024-05-27 04:56:00",
            "band": 10,
            "rx_sign": "K6FTP",
            "rx_lat": 34.438,
            "rx_lon": -119.875,
            "rx_loc": "DM04bk",
            "tx_sign": "K7UV",
            "tx_lat": 41.521,
            "tx_lon": -112.042,
            "tx_loc": "DN31xm",
            "distance": 1044,
            "azimuth": 224,
            "rx_azimuth": 38,
            "frequency": 10140207,
            "power": 20,
            "snr": -16,
            "drift": 0,
            "version": "wspr-zero",
            "code": 1
        },
        {
            "id": "7751534054",
            "time": "2024-05-27 04:56:00",
            "band": 10,
            "rx_sign": "K6FTP",
            "rx_lat": 34.438,
            "rx_lon": -119.875,
            "rx_loc": "DM04bk",
            "tx_sign": "VE7AV",
            "tx_lat": 53.813,
            "tx_lon": -122.792,
            "tx_loc": "CO83ot",
            "distance": 2166,
            "azimuth": 173,
            "rx_azimuth": 354,
            "frequency": 10140274,
            "power": 23,
            "snr": -18,
            "drift": 0,
            "version": "wspr-zero",
            "code": 1
        },
        {
            "id": "7751534088",
            "time": "2024-05-27 04:56:00",
            "band": 10,
            "rx_sign": "K6FTP",
            "rx_lat": 34.438,
            "rx_lon": -119.875,
            "rx_loc": "DM04bk",
            "tx_sign": "VA7GEM",
            "tx_lat": 49.354,
            "tx_lon": -123.042,
            "tx_loc": "CN89li",
            "distance": 1679,
            "azimuth": 170,
            "rx_azimuth": 352,
            "frequency": 10140226,
            "power": 30,
            "snr": -18,
            "drift": 0,
            "version": "wspr-zero",
            "code": 1
        },
        {
            "id": "7751534126",
            "time": "2024-05-27 04:56:00",
            "band": 10,
            "rx_sign": "K6FTP",
            "rx_lat": 34.438,
            "rx_lon": -119.875,
            "rx_loc": "DM04bk",
            "tx_sign": "KF4JU",
            "tx_lat": 27.813,
            "tx_lon": -82.708,
            "tx_loc": "EL87pt",
            "distance": 3593,
            "azimuth": 291,
            "rx_azimuth": 91,
            "frequency": 10140291,
            "power": 37,
            "snr": -18,
            "drift": 0,
            "version": "wspr-zero",
            "code": 1
        },
        {
            "id": "7751534150",
            "time": "2024-05-27 04:56:00",
            "band": 10,
            "rx_sign": "K6FTP",
            "rx_lat": 34.438,
            "rx_lon": -119.875,
            "rx_loc": "DM04bk",
            "tx_sign": "W5KV",
            "tx_lat": 39.646,
            "tx_lon": -104.792,
            "tx_loc": "DM79op",
            "distance": 1456,
            "azimuth": 251,
            "rx_azimuth": 62,
            "frequency": 10140300,
            "power": 23,
            "snr": -19,
            "drift": 0,
            "version": "wspr-zero",
            "code": 1
        },
        {
            "id": "7751534200",
            "time": "2024-05-27 04:56:00",
            "band": 10,
            "rx_sign": "K6FTP",
            "rx_lat": 34.438,
            "rx_lon": -119.875,
            "rx_loc": "DM04bk",
            "tx_sign": "AD0RR",
            "tx_lat": 37.188,
            "tx_lon": -93.292,
            "tx_loc": "EM37ie",
            "distance": 2409,
            "azimuth": 271,
            "rx_azimuth": 74,
            "frequency": 10140093,
            "power": 23,
            "snr": -28,
            "drift": 0,
            "version": "wspr-zero",
            "code": 1
        },
        {
            "id": "7751542733",
            "time": "2024-05-27 04:58:00",
            "band": 10,
            "rx_sign": "K6FTP",
            "rx_lat": 34.438,
            "rx_lon": -119.875,
            "rx_loc": "DM04bk",
            "tx_sign": "W5NR",
            "tx_lat": 30.646,
            "tx_lon": -97.708,
            "tx_loc": "EM10dp",
            "distance": 2116,
            "azimuth": 287,
            "rx_azimuth": 95,
            "frequency": 10140119,
            "power": 23,
            "snr": -20,
            "drift": 0,
            "version": "wspr-zero",
            "code": 1
        },
        {
            "id": "7751542688",
            "time": "2024-05-27 04:58:00",
            "band": 10,
            "rx_sign": "K6FTP",
            "rx_lat": 34.438,
            "rx_lon": -119.875,
            "rx_loc": "DM04bk",
            "tx_sign": "W3HH",
            "tx_lat": 29.063,
            "tx_lon": -82.208,
            "tx_loc": "EL89vb",
            "distance": 3591,
            "azimuth": 289,
            "rx_azimuth": 88,
            "frequency": 10140163,
            "power": 33,
            "snr": -15,
            "drift": 0,
            "version": "wspr-zero",
            "code": 1
        },
        {
            "id": "7751542716",
            "time": "2024-05-27 04:58:00",
            "band": 10,
            "rx_sign": "K6FTP",
            "rx_lat": 34.438,
            "rx_lon": -119.875,
            "rx_loc": "DM04bk",
            "tx_sign": "N6RY",
            "tx_lat": 33.646,
            "tx_lon": -112.458,
            "tx_loc": "DM33sp",
            "distance": 689,
            "azimuth": 279,
            "rx_azimuth": 95,
            "frequency": 10140286,
            "power": 37,
            "snr": -20,
            "drift": 0,
            "version": "wspr-zero",
            "code": 1
        },
        {
            "id": "7751542673",
            "time": "2024-05-27 04:58:00",
            "band": 10,
            "rx_sign": "K6FTP",
            "rx_lat": 34.438,
            "rx_lon": -119.875,
            "rx_loc": "DM04bk",
            "tx_sign": "AE7KH",
            "tx_lat": 45.479,
            "tx_lon": -123.042,
            "tx_loc": "CN85",
            "distance": 1257,
            "azimuth": 167,
            "rx_azimuth": 348,
            "frequency": 10140138,
            "power": 23,
            "snr": -6,
            "drift": 0,
            "version": "wspr-zero",
            "code": 1
        },
        {
            "id": "7751542756",
            "time": "2024-05-27 04:58:00",
            "band": 10,
            "rx_sign": "K6FTP",
            "rx_lat": 34.438,
            "rx_lon": -119.875,
            "rx_loc": "DM04bk",
            "tx_sign": "W0MDR",
            "tx_lat": 39.604,
            "tx_lon": -104.708,
            "tx_loc": "DM79po",
            "distance": 1461,
            "azimuth": 252,
            "rx_azimuth": 62,
            "frequency": 10140258,
            "power": 10,
            "snr": -24,
            "drift": 0,
            "version": "wspr-zero",
            "code": 1
        },
        {
            "id": "7751550865",
            "time": "2024-05-27 05:00:00",
            "band": 10,
            "rx_sign": "K6FTP",
            "rx_lat": 34.438,
            "rx_lon": -119.875,
            "rx_loc": "DM04bk",
            "tx_sign": "KA7FTP",
            "tx_lat": 40.479,
            "tx_lon": -111.042,
            "tx_loc": "DN40",
            "distance": 1028,
            "azimuth": 232,
            "rx_azimuth": 46,
            "frequency": 10140183,
            "power": 23,
            "snr": -19,
            "drift": 0,
            "version": "wspr-zero",
            "code": 1
        },
        {
            "id": "7751550883",
            "time": "2024-05-27 05:00:00",
            "band": 10,
            "rx_sign": "K6FTP",
            "rx_lat": 34.438,
            "rx_lon": -119.875,
            "rx_loc": "DM04bk",
            "tx_sign": "KT7AZ",
            "tx_lat": 32.396,
            "tx_lon": -110.958,
            "tx_loc": "DM42mj",
            "distance": 858,
            "azimuth": 288,
            "rx_azimuth": 102,
            "frequency": 10140141,
            "power": 20,
            "snr": -21,
            "drift": 0,
            "version": "wspr-zero",
            "code": 1
        },
        {
            "id": "7751558452",
            "time": "2024-05-27 05:02:00",
            "band": 10,
            "rx_sign": "K6FTP",
            "rx_lat": 34.438,
            "rx_lon": -119.875,
            "rx_loc": "DM04bk",
            "tx_sign": "KE7Z",
            "tx_lat": 48.104,
            "tx_lon": -123.542,
            "tx_loc": "CN88fc",
            "distance": 1550,
            "azimuth": 167,
            "rx_azimuth": 349,
            "frequency": 10140179,
            "power": 23,
            "snr": -17,
            "drift": 0,
            "version": "wspr-zero",
            "code": 1
        },
        {
            "id": "7751558491",
            "time": "2024-05-27 05:02:00",
            "band": 10,
            "rx_sign": "K6FTP",
            "rx_lat": 34.438,
            "rx_lon": -119.875,
            "rx_loc": "DM04bk",
            "tx_sign": "W5GNB",
            "tx_lat": 33.063,
            "tx_lon": -104.208,
            "tx_loc": "DM73vb",
            "distance": 1455,
            "azimuth": 280,
            "rx_azimuth": 91,
            "frequency": 10140218,
            "power": 3,
            "snr": -20,
            "drift": 0,
            "version": "wspr-zero",
            "code": 1
        },
        {
            "id": "7751558524",
            "time": "2024-05-27 05:02:00",
            "band": 10,
            "rx_sign": "K6FTP",
            "rx_lat": 34.438,
            "rx_lon": -119.875,
            "rx_loc": "DM04bk",
            "tx_sign": "VE6DAI",
            "tx_lat": 53.521,
            "tx_lon": -113.625,
            "tx_loc": "DO33em",
            "distance": 2178,
            "azimuth": 196,
            "rx_azimuth": 11,
            "frequency": 10140256,
            "power": 33,
            "snr": -21,
            "drift": 0,
            "version": "wspr-zero",
            "code": 1
        },
        {
            "id": "7751568092",
            "time": "2024-05-27 05:04:00",
            "band": 10,
            "rx_sign": "K6FTP",
            "rx_lat": 34.438,
            "rx_lon": -119.875,
            "rx_loc": "DM04bk",
            "tx_sign": "VE7AHT",
            "tx_lat": 49.104,
            "tx_lon": -123.042,
            "tx_loc": "CN89lc",
            "distance": 1651,
            "azimuth": 170,
            "rx_azimuth": 351,
            "frequency": 10140206,
            "power": 33,
            "snr": -14,
            "drift": 0,
            "version": "wspr-zero",
            "code": 1
        },
        {
            "id": "7751568108",
            "time": "2024-05-27 05:04:00",
            "band": 10,
            "rx_sign": "K6FTP",
            "rx_lat": 34.438,
            "rx_lon": -119.875,
            "rx_loc": "DM04bk",
            "tx_sign": "VA7GEM",
            "tx_lat": 49.354,
            "tx_lon": -123.042,
            "tx_loc": "CN89li",
            "distance": 1679,
            "azimuth": 170,
            "rx_azimuth": 352,
            "frequency": 10140226,
            "power": 30,
            "snr": -14,
            "drift": 0,
            "version": "wspr-zero",
            "code": 1
        },
        {
            "id": "7751568145",
            "time": "2024-05-27 05:04:00",
            "band": 10,
            "rx_sign": "K6FTP",
            "rx_lat": 34.438,
            "rx_lon": -119.875,
            "rx_loc": "DM04bk",
            "tx_sign": "AK7U",
            "tx_lat": 45.396,
            "tx_lon": -122.958,
            "tx_loc": "CN85mj",
            "distance": 1246,
            "azimuth": 167,
            "rx_azimuth": 348,
            "frequency": 10140281,
            "power": 23,
            "snr": -25,
            "drift": 0,
            "version": "wspr-zero",
            "code": 1
        },
        {
            "id": "7751576605",
            "time": "2024-05-27 05:06:00",
            "band": 10,
            "rx_sign": "K6FTP",
            "rx_lat": 34.438,
            "rx_lon": -119.875,
            "rx_loc": "DM04bk",
            "tx_sign": "AE7KH",
            "tx_lat": 45.479,
            "tx_lon": -123.042,
            "tx_loc": "CN85",
            "distance": 1257,
            "azimuth": 167,
            "rx_azimuth": 348,
            "frequency": 10140141,
            "power": 23,
            "snr": -10,
            "drift": 0,
            "version": "wspr-zero",
            "code": 1
        },
        {
            "id": "7751576633",
            "time": "2024-05-27 05:06:00",
            "band": 10,
            "rx_sign": "K6FTP",
            "rx_lat": 34.438,
            "rx_lon": -119.875,
            "rx_loc": "DM04bk",
            "tx_sign": "K7FET",
            "tx_lat": 45.521,
            "tx_lon": -122.958,
            "tx_loc": "CN85mm",
            "distance": 1260,
            "azimuth": 167,
            "rx_azimuth": 348,
            "frequency": 10140231,
            "power": 30,
            "snr": -14,
            "drift": 0,
            "version": "wspr-zero",
            "code": 1
        },
        {
            "id": "7751576664",
            "time": "2024-05-27 05:06:00",
            "band": 10,
            "rx_sign": "K6FTP",
            "rx_lat": 34.438,
            "rx_lon": -119.875,
            "rx_loc": "DM04bk",
            "tx_sign": "VE7AV",
            "tx_lat": 53.813,
            "tx_lon": -122.792,
            "tx_loc": "CO83ot",
            "distance": 2166,
            "azimuth": 173,
            "rx_azimuth": 354,
            "frequency": 10140247,
            "power": 23,
            "snr": -16,
            "drift": 0,
            "version": "wspr-zero",
            "code": 1
        },
        {
            "id": "7751576713",
            "time": "2024-05-27 05:06:00",
            "band": 10,
            "rx_sign": "K6FTP",
            "rx_lat": 34.438,
            "rx_lon": -119.875,
            "rx_loc": "DM04bk",
            "tx_sign": "KD0MVQ",
            "tx_lat": 38.479,
            "tx_lon": -95.042,
            "tx_loc": "EM28",
            "distance": 2259,
            "azimuth": 266,
            "rx_azimuth": 71,
            "frequency": 10140257,
            "power": 23,
            "snr": -23,
            "drift": 0,
            "version": "wspr-zero",
            "code": 1
        },
        {
            "id": "7751586134",
            "time": "2024-05-27 05:08:00",
            "band": 10,
            "rx_sign": "K6FTP",
            "rx_lat": 34.438,
            "rx_lon": -119.875,
            "rx_loc": "DM04bk",
            "tx_sign": "KD7UHR",
            "tx_lat": 38.688,
            "tx_lon": -89.875,
            "tx_loc": "EM58bq",
            "distance": 2708,
            "azimuth": 269,
            "rx_azimuth": 71,
            "frequency": 10140207,
            "power": 40,
            "snr": -3,
            "drift": 0,
            "version": "wspr-zero",
            "code": 1
        },
        {
            "id": "7751586189",
            "time": "2024-05-27 05:08:00",
            "band": 10,
            "rx_sign": "K6FTP",
            "rx_lat": 34.438,
            "rx_lon": -119.875,
            "rx_loc": "DM04bk",
            "tx_sign": "KA8JMW",
            "tx_lat": 35.104,
            "tx_lon": -106.292,
            "tx_loc": "DM65uc",
            "distance": 1242,
            "azimuth": 270,
            "rx_azimuth": 82,
            "frequency": 10140310,
            "power": 23,
            "snr": -20,
            "drift": 0,
            "version": "wspr-zero",
            "code": 1
        },
        {
            "id": "7751586221",
            "time": "2024-05-27 05:08:00",
            "band": 10,
            "rx_sign": "K6FTP",
            "rx_lat": 34.438,
            "rx_lon": -119.875,
            "rx_loc": "DM04bk",
            "tx_sign": "KW4TN",
            "tx_lat": 35.854,
            "tx_lon": -84.208,
            "tx_loc": "EM75vu",
            "distance": 3229,
            "azimuth": 278,
            "rx_azimuth": 76,
            "frequency": 10140268,
            "power": 37,
            "snr": -20,
            "drift": 0,
            "version": "wspr-zero",
            "code": 1
        },
        {
            "id": "7751586254",
            "time": "2024-05-27 05:08:00",
            "band": 10,
            "rx_sign": "K6FTP",
            "rx_lat": 34.438,
            "rx_lon": -119.875,
            "rx_loc": "DM04bk",
            "tx_sign": "W3HH",
            "tx_lat": 29.063,
            "tx_lon": -82.208,
            "tx_loc": "EL89vb",
            "distance": 3591,
            "azimuth": 289,
            "rx_azimuth": 88,
            "frequency": 10140164,
            "power": 33,
            "snr": -21,
            "drift": 0,
            "version": "wspr-zero",
            "code": 1
        },
        {
            "id": "7751586284",
            "time": "2024-05-27 05:08:00",
            "band": 10,
            "rx_sign": "K6FTP",
            "rx_lat": 34.438,
            "rx_lon": -119.875,
            "rx_loc": "DM04bk",
            "tx_sign": "KC5MO",
            "tx_lat": 30.229,
            "tx_lon": -97.875,
            "tx_loc": "EM10bf",
            "distance": 2115,
            "azimuth": 289,
            "rx_azimuth": 96,
            "frequency": 10140149,
            "power": 23,
            "snr": -22,
            "drift": 0,
            "version": "wspr-zero",
            "code": 1
        },
        {
            "id": "7751596909",
            "time": "2024-05-27 05:10:00",
            "band": 10,
            "rx_sign": "K6FTP",
            "rx_lat": 34.438,
            "rx_lon": -119.875,
            "rx_loc": "DM04bk",
            "tx_sign": "AA0N",
            "tx_lat": 42.021,
            "tx_lon": -91.542,
            "tx_loc": "EN42fa",
            "distance": 2600,
            "azimuth": 260,
            "rx_azimuth": 62,
            "frequency": 10140126,
            "power": 37,
            "snr": -9,
            "drift": 0,
            "version": "wspr-zero",
            "code": 1
        },
        {
            "id": "7751596928",
            "time": "2024-05-27 05:10:00",
            "band": 10,
            "rx_sign": "K6FTP",
            "rx_lat": 34.438,
            "rx_lon": -119.875,
            "rx_loc": "DM04bk",
            "tx_sign": "AE7KH",
            "tx_lat": 45.479,
            "tx_lon": -123.042,
            "tx_loc": "CN85",
            "distance": 1257,
            "azimuth": 167,
            "rx_azimuth": 348,
            "frequency": 10140232,
            "power": 23,
            "snr": -13,
            "drift": 0,
            "version": "wspr-zero",
            "code": 1
        },
        {
            "id": "7751596953",
            "time": "2024-05-27 05:10:00",
            "band": 10,
            "rx_sign": "K6FTP",
            "rx_lat": 34.438,
            "rx_lon": -119.875,
            "rx_loc": "DM04bk",
            "tx_sign": "N0KQG",
            "tx_lat": 39.479,
            "tx_lon": -95.042,
            "tx_loc": "EM29",
            "distance": 2269,
            "azimuth": 264,
            "rx_azimuth": 68,
            "frequency": 10140211,
            "power": 23,
            "snr": -19,
            "drift": 0,
            "version": "wspr-zero",
            "code": 1
        },
        {
            "id": "7751605755",
            "time": "2024-05-27 05:12:00",
            "band": 10,
            "rx_sign": "K6FTP",
            "rx_lat": 34.438,
            "rx_lon": -119.875,
            "rx_loc": "DM04bk",
            "tx_sign": "VA7GEM",
            "tx_lat": 49.354,
            "tx_lon": -123.042,
            "tx_loc": "CN89li",
            "distance": 1679,
            "azimuth": 170,
            "rx_azimuth": 352,
            "frequency": 10140226,
            "power": 30,
            "snr": -13,
            "drift": 0,
            "version": "wspr-zero",
            "code": 1
        },
        {
            "id": "7751605792",
            "time": "2024-05-27 05:12:00",
            "band": 10,
            "rx_sign": "K6FTP",
            "rx_lat": 34.438,
            "rx_lon": -119.875,
            "rx_loc": "DM04bk",
            "tx_sign": "W0MDR",
            "tx_lat": 39.604,
            "tx_lon": -104.708,
            "tx_loc": "DM79po",
            "distance": 1461,
            "azimuth": 252,
            "rx_azimuth": 62,
            "frequency": 10140302,
            "power": 10,
            "snr": -19,
            "drift": 0,
            "version": "wspr-zero",
            "code": 1
        },