{
    "meta": [
        {
            "name": "id",
            "type": "UInt64"
        },
        {
            "name": "time",
            "type": "DateTime"
        },
        {
            "name": "band",
            "type": "Int16"
        },
        {
            "name": "rx_sign",
            "type": "LowCardinality(String)"
        },
        {
            "name": "rx_lat",
            "type": "Float32"
        },
        {
            "name": "rx_lon",
            "type": "Float32"
        },
        {
            "name": "rx_loc",
            "type": "LowCardinality(String)"
        },
        {
            "name": "tx_sign",
            "type": "LowCardinality(String)"
        },
        {
            "name": "tx_lat",
            "type": "Float32"
        },
        {
            "name": "tx_lon",
            "type": "Float32"
        },
        {
            "name": "tx_loc",
            "type": "LowCardinality(String)"
        },
        {
            "name": "distance",
            "type": "UInt16"
        },
        {
            "name": "azimuth",
            "type": "UInt16"
        },
        {
            "name": "rx_azimuth",
            "type": "UInt16"
        },
        {
            "name": "frequency",
            "type": "UInt32"
        },
        {
            "name": "power",
            "type": "Int8"
        },
        {
            "name": "snr",
            "type": "Int8"
        },
        {
            "name": "drift",
            "type": "Int8"
        },
        {
            "name": "version",
            "type": "LowCardinality(String)"
        },
        {
            "name": "code",
            "type": "Int8"
        }
    ],
    "data": [
        {
            "id": "7757309490",
            "time": "2024-05-28 04:02:00",
            "band": 10,
            "rx_sign": "KA7OEI-1",
            "rx_lat": 41.604,
            "rx_lon": -112.292,
            "rx_loc": "DN31uo",
            "tx_sign": "K6FTP",
            "tx_lat": 34.438,
            "tx_lon": -119.875,
            "tx_loc": "DM04bk",
            "distance": 1037,
            "azimuth": 38,
            "rx_azimuth": 222,
            "frequency": 10140320,
            "power": 23,
            "snr": -9,
            "drift": 0,
            "version": "WD_3.0.9",
            "code": 1
        },
        {
            "id": "7757318598",
            "time": "2024-05-28 04:04:00",
            "band": 10,
            "rx_sign": "KA7OEI-1",
            "rx_lat": 41.604,
            "rx_lon": -112.292,
            "rx_loc": "DN31uo",
            "tx_sign": "K6FTP",
            "tx_lat": 34.438,
            "tx_lon": -119.875,
            "tx_loc": "DM04bk",
            "distance": 1037,
            "azimuth": 38,
            "rx_azimuth": 222,
            "frequency": 10140315,
            "power": 23,
            "snr": -14,
            "drift": 0,
            "version": "WD_3.0.9",
            "code": 1
        },
        {
            "id": "7757327602",
            "time": "2024-05-28 04:06:00",
            "band": 7,
            "rx_sign": "K6FOD",
            "rx_lat": 34.104,
            "rx_lon": -118.125,
            "rx_loc": "DM04wc",
            "tx_sign": "K6FTP",
            "tx_lat": 34.438,
            "tx_lon": -119.875,
            "tx_loc": "DM04bk",
            "distance": 165,
            "azimuth": 102,
            "rx_azimuth": 283,
            "frequency": 7040148,
            "power": 23,
            "snr": -22,
            "drift": 0,
            "version": "WD_3.1.3",
            "code": 1
        },
        {
            "id": "7757333986",
            "time": "2024-05-28 04:08:00",
            "band": 10,
            "rx_sign": "N1SRC",
            "rx_lat": 43.354,
            "rx_lon": -115.958,
            "rx_loc": "DN23ai",
            "tx_sign": "K6FTP",
            "tx_lat": 34.438,
            "tx_lon": -119.875,
            "tx_loc": "DM04bk",
            "distance": 1047,
            "azimuth": 18,
            "rx_azimuth": 200,
            "frequency": 10140289,
            "power": 23,
            "snr": -12,
            "drift": -1,
            "version": "2.6.1",
            "code": 1
        },
        {
            "id": "7757335894",
            "time": "2024-05-28 04:08:00",
            "band": 10,
            "rx_sign": "AA7NM",
            "rx_lat": 46.979,
            "rx_lon": -122.792,
            "rx_loc": "CN86ox",
            "tx_sign": "K6FTP",
            "tx_lat": 34.438,
            "tx_lon": -119.875,
            "tx_loc": "DM04bk",
            "distance": 1416,
            "azimuth": 351,
            "rx_azimuth": 169,
            "frequency": 10140296,
            "power": 23,
            "snr": -23,
            "drift": 0,
            "version": "SparkSDR",
            "code": 1
        },
        {
            "id": "7757336201",
            "time": "2024-05-28 04:08:00",
            "band": 10,
            "rx_sign": "KB7GF",
            "rx_lat": 46.021,
            "rx_lon": -118.375,
            "rx_loc": "DN06ta",
            "tx_sign": "K6FTP",
            "tx_lat": 34.438,
            "tx_lon": -119.875,
            "tx_loc": "DM04bk",
            "distance": 1294,
            "azimuth": 5,
            "rx_azimuth": 186,
            "frequency": 10140292,
            "power": 23,
            "snr": -14,
            "drift": -2,
            "version": "WD_3.0.9",
            "code": 1
        },
        {
            "id": "7757336870",
            "time": "2024-05-28 04:08:00",
            "band": 10,
            "rx_sign": "WB0OEW",
            "rx_lat": 32.479,
            "rx_lon": -111.042,
            "rx_loc": "DM42",
            "tx_sign": "K6FTP",
            "tx_lat": 34.438,
            "tx_lon": -119.875,
            "tx_loc": "DM04bk",
            "distance": 848,
            "azimuth": 102,
            "rx_azimuth": 287,
            "frequency": 10140291,
            "power": 23,
            "snr": -18,
            "drift": -2,
            "version": "2.6.1",
            "code": 1
        },
        {
            "id": "7757337211",
            "time": "2024-05-28 04:08:00",
            "band": 10,
            "rx_sign": "KA7OEI/Q",
            "rx_lat": 41.604,
            "rx_lon": -112.292,
            "rx_loc": "DN31uo",
            "tx_sign": "K6FTP",
            "tx_lat": 34.438,
            "tx_lon": -119.875,
            "tx_loc": "DM04bk",
            "distance": 1037,
            "azimuth": 38,
            "rx_azimuth": 222,
            "frequency": 10140289,
            "power": 23,
            "snr": -13,
            "drift": 0,
            "version": "WD_3.1.5",
            "code": 1
        },
        {
            "id": "7757337913",
            "time": "2024-05-28 04:08:00",
            "band": 10,
            "rx_sign": "N4RVE",
            "rx_lat": 48.563,
            "rx_lon": -123.125,
            "rx_loc": "CN88kn",
            "tx_sign": "K6FTP",
            "tx_lat": 34.438,
            "tx_lon": -119.875,
            "tx_loc": "DM04bk",
            "distance": 1593,
            "azimuth": 351,
            "rx_azimuth": 169,
            "frequency": 10140289,
            "power": 23,
            "snr": -11,
            "drift": 0,
            "version": "WD_3.1.6",
            "code": 1
        },
        {
            "id": "7757339639",
            "time": "2024-05-28 04:08:00",
            "band": 10,
            "rx_sign": "KA7OEI-1",
            "rx_lat": 41.604,
            "rx_lon": -112.292,
            "rx_loc": "DN31uo",
            "tx_sign": "K6FTP",
            "tx_lat": 34.438,
            "tx_lon": -119.875,
            "tx_loc": "DM04bk",
            "distance": 1037,
            "azimuth": 38,
            "rx_azimuth": 222,
            "frequency": 10140289,
            "power": 23,
            "snr": -10,
            "drift": 0,
            "version": "WD_3.0.9",
            "code": 1
        },
        {
            "id": "7757340421",
            "time": "2024-05-28 04:08:00",
            "band": 10,
            "rx_sign": "W7PUA",
            "rx_lat": 44.688,
            "rx_lon": -123.208,
            "rx_loc": "CN84jq",
            "tx_sign": "K6FTP",
            "tx_lat": 34.438,
            "tx_lon": -119.875,
            "tx_loc": "DM04bk",
            "distance": 1175,
            "azimuth": 347,
            "rx_azimuth": 164,
            "frequency": 10140289,
            "power": 23,
            "snr": -6,
            "drift": 1,
            "version": "1.4A Kiwi",
            "code": 1
        },
        {
            "id": "7757341465",
            "time": "2024-05-28 04:08:00",
            "band": 10,
            "rx_sign": "KV6X",
            "rx_lat": 35.688,
            "rx_lon": -105.958,
            "rx_loc": "DM75aq",
            "tx_sign": "K6FTP",
            "tx_lat": 34.438,
            "tx_lon": -119.875,
            "tx_loc": "DM04bk",
            "distance": 1273,
            "azimuth": 80,
            "rx_azimuth": 267,
            "frequency": 10140292,
            "power": 23,
            "snr": -25,
            "drift": 0,
            "version": "WD_3.1.6",
            "code": 1
        },
        {
            "id": "7757341520",
            "time": "2024-05-28 04:08:00",
            "band": 10,
            "rx_sign": "KK6PR",
            "rx_lat": 44.438,
            "rx_lon": -121.292,
            "rx_loc": "CN94ik",
            "tx_sign": "K6FTP",
            "tx_lat": 34.438,
            "tx_lon": -119.875,
            "tx_loc": "DM04bk",
            "distance": 1119,
            "azimuth": 354,
            "rx_azimuth": 173,
            "frequency": 10140289,
            "power": 23,
            "snr": -20,
            "drift": 0,
            "version": "WD_3.1.5",
            "code": 1
        }
    ],
    "rows": 13,
    "rows_before_limit_at_least": 13,
    "statistics": {
        "elapsed": 0.039227516,
        "rows_read": 6097150,
        "bytes_read": 37983953
    }
}